,movie,location,year,year_group,latitude,longitude
0,Absolute Trust (2009),Fulton Ferry Pier (Near Brooklyn Bridge) Brooklyn.,2009,2000s,40.6927004,-74.001551
1,Absolute Trust (2009),"Ground Zero, Greenwich Street and Liberty Street, Manhattan.",2009,2000s,40.709733,-74.0117711
2,Arthur 2: On the Rocks (1988),Tavern on the Green (btw West 66th and 67th Street) Manhattan.,1988,1980s,40.7665612,-73.9629317
3,Arthur 2: On the Rocks (1988),"Arthur's Apartment, 676 Park Avenue and East 68th Street, Manhattan.",1988,1980s,40.7662476,-73.9602479
4,Arthur 2: On the Rocks (1988),"Sutton Square and Sutton Place, Manhattan.",1988,1980s,40.7580204,-73.9601669
5,Arthur 2: On the Rocks (1988),"Linda's Brownstone, 36 West 89th Street and Central Park West, Manhattan.",1988,1980s,40.7828647,-73.9653551
6,Arthur (1981),"The Plaza Hotel, 750 5th Avenue and Central Park South, Manhattan.",1981,1980s,40.7828647,-73.9653551
7,Arthur (1981),"5th Avenue and West 58th Street, Manhattan.",1981,1980s,40.7636484,-73.9734618
8,Armageddon (1998),"The Flatiron Building, 175 5th Avenue, Manhattan.",1998,1990s,40.7410605,-73.9896986
9,Armageddon (1998),"Grand Central Terminal, 87 East 42nd Street, Manhattan.",1998,1990s,40.7525304,-73.9773706
10,Armageddon (1998),"Chrysler Building, 405 Lexington Avenue and East 42nd Street, Manhattan.",1998,1990s,40.750354,-73.9734633
11,Arbitrage (2012),"Robert's Apartment, 19 Gramercy Park & East 20th Street, Manhattan.",2012,2010s,40.7359972,-73.9822652
12,Arbitrage (2012),"Julie's Apartment, 77 White Street and Cortlandt Alley, Manhattan.",2012,2010s,40.717786,-74.0022791
13,Arbitrage (2012),"Office, 177 6th Avenue (btw West 45th & 46th Streets) Manhattan.",2012,2010s,40.7609894,-73.9907902
14,Arbitrage (2012),"The Four Seasons Restaurant, 99 East 52nd Street & Park Avenue, Manhattan.",2012,2010s,40.7779534,-73.9589565
15,Arbitrage (2012),"Gallery, 530 West 25th Street (btw 10th & 11th Avenues) Manhattan.",2012,2010s,40.7830603,-73.9712488
16,Arbitrage (2012),696 Park Avenue (between East 68th & 69th Streets) Manhattan.,2012,2010s,39.2342323,-96.6968237
17,Arbitrage (2012),"Police Precinct, West 26th Street and 12th Avenue, Manhattan.",2012,2010s,40.7607442,-74.002077
18,Arbitrage (2012),"101 Park Avenue and East 40th Street, Manhattan.",2012,2010s,40.750881,-73.9787109
19,Arbitrage (2012),"(Near Gapstow Bridge) South East Corner, Central Park, Manhattan.",2012,2010s,40.7669254,-73.9737939
20,Arbitrage (2012),"New York County Supreme Court, 60 Centre Street, Manhattan.",2012,2010s,40.7143245,-74.0014732
21,Arbitrage (2012),"Funeral Chapel, 1076 Madison Avenue and East 81st Street, Manhattan.",2012,2010s,40.7746583,-73.954099
22,Arbitrage (2012),"Le Caprice (Pierre Hotel) 5th Avenue & East 61st Street, Manhattan.",2012,2010s,40.7628086,-73.965688
23,Arbitrage (2012),"Antonucci Cafe, 170 East 81st Street and Lexington Avenue, Manhattan.",2012,2010s,40.773008,-73.96032
24,Arbitrage (2012),"The Plaza Hotel, 750 5th Avenue and Central Park South, Manhattan.",2012,2010s,40.7828647,-73.9653551
25,The April Fools (1969),"John F Kennedy International Airport, Queens.",1969,1960s,40.6413111,-73.7781391
26,The April Fools (1969),"Naumburg Bandshell, Central Park, Manhattan.",1969,1960s,40.7711329,-73.9741874
27,The April Fools (1969),"Howard's Workplace, 140 Broadway and Liberty Street, Manhattan.",1969,1960s,40.709733,-74.0117711
28,The April Fools (1969),"United Nations Plaza and East 48th Street, Manhattan.",1969,1960s,40.7527056,-73.9671922
29,The April Fools (1969),"Catherine's Workplace, United Nations Plaza and East 48th Street, Manhattan.",1969,1960s,40.7545861,-73.9717144
30,The April Fools (1969),"Zoo, Central Park (near 5th Avenue) Manhattan.",1969,1960s,40.774734,-73.9653844
31,The April Fools (1969),"Delmonico's Bar, 56 Beaver Street and William Street, Manhattan.",1969,1960s,40.7078285,-74.0081598
32,The Apartment (1960),"C.C. Baxter's Offices, 2 Broadway and Stone Street, Manhattan.",1960,1960s,40.7040168,-74.0116028
33,The Apartment (1960),"Majestic Theatre, 247 West 44th Street and 8th Avenue, Manhattan.",1960,1960s,40.8165192,-73.9465432
34,The Apartment (1960),"205 Columbus Avenue and West 69th Street, Manhattan.",1960,1960s,40.775487,-73.9802007
35,The Apartment (1960),West 69th Street (btw Broadway and Columbus Avenue) Manhattan.,1960,1960s,40.7854736,-73.9729361
36,The Apartment (1960),"West Drive (Near Columbus Circle) Central Park, Manhattan.",1960,1960s,40.7680902,-73.9813616
37,Any Wednesday (1966),"Ellen's Apartment, 165 East 64th Street and Lexington Avenue, Manhattan.",1966,1960s,40.773008,-73.96032
38,Any Wednesday (1966),"Playground, East 56th Street and Sutton Place, Manhattan.",1966,1960s,40.7576281,-73.961698
39,Any Wednesday (1966),"Sutton Square and Sutton Place, Manhattan.",1966,1960s,40.7580204,-73.9601669
40,Anything Else (2003),Reservoir Bridge Central Park (West 94th Street) Manhattan.,2003,2000s,40.7927713,-73.97133
41,Anything Else (2003),"Greywacke Arch, Central Park, Manhattan.",2003,2000s,40.7711329,-73.9741874
42,Anything Else (2003),"Isabella's Restaurant, 359 Columbus Avenue and West 77th Street, Manhattan.",2003,2000s,40.7818433,-73.9792822
43,Anything Else (2003),"Stage Deli, 834 7th Avenue and West 53rd Street, Manhattan.",2003,2000s,40.7641748,-73.9847444
44,Anything Else (2003),"Jerry Falk's Apartment, 52 East 82nd Street and Park Avenue, Manhattan.",2003,2000s,40.7779534,-73.9589565
45,Anything Else (2003),"Charles Street and Bleecker Street, Greenwich Village, Manhattan.",2003,2000s,40.7346503,-74.0047767
46,Anything Else (2003),"Les Pierre Antiques, 369 Bleecker Street and Charles Street, Manhattan.",2003,2000s,40.7346503,-74.0047767
47,Anything Else (2003),"East River, near Queensboro Bridge, Manhattan.",2003,2000s,40.7573829,-73.9555423
48,Anything Else (2003),"H B Studio Inc, 120 Bank Street and Greenwich Street, Manhattan.",2003,2000s,40.7227909,-74.0096582
49,Anything Else (2003),"Quad Cinema, 34 West 13th Street (btw 5th and 6th Avenues) Manhattan.",2003,2000s,40.7830603,-73.9712488
50,Anything Else (2003),"Brownstone, 441 East 87th Street (btw 1st Avenue & York Avenue) Manhattan.",2003,2000s,40.7694491,-73.951862
51,Anything Else (2003),"Sant Ambroeus Restaurant, 1000 Madison Avenue and East 78th Street, Manhattan.",2003,2000s,40.7726606,-73.9555581
52,Anything Else (2003),"Madison Avenue and East 78th Street, Manhattan.",2003,2000s,40.7756496,-73.9626297
53,Antz (1998),"Sheep Meadow, Central Park (btw 66th and 69th Street) Manhattan.",1998,1990s,40.767812,-73.962014
54,Another Woman (1988),"Bedford Street and Barrow Street, Greenwich Village, Manhattan.",1988,1980s,40.7318564,-74.0051039
55,Another Woman (1988),"Barrow Street and Commerce Street, Greenwich Village, Manhattan.",1988,1980s,40.731642,-74.0061982
56,Another Woman (1988),"Cherry Lane Theatre, 38 Commerce Street and Bedford Street, Manhattan.",1988,1980s,40.7307284,-74.0044668
57,The Anomaly (2014),"(Side Entrance) 72 Walker Street and Cortlandt Alley, Manhattan.",2014,2010s,40.717786,-74.0022791
58,The Anomaly (2014),"Cortlandt Alley and White Street, Manhattan.",2014,2010s,40.7176963,-74.0023399
59,The Anomaly (2014),"Times Square, Manhattan.",2014,2010s,40.759011,-73.9844722
60,Annie Hall (1977),"Annie Hall's Apartment, East 68th Street and Madison Avenue, Manhattan.",1977,1970s,40.7773054,-73.9614006
61,Annie Hall (1977),East 66th Street (btw 2nd and 3rd Avenue) Manhattan.,1977,1970s,40.7684404,-73.9615733
62,Annie Hall (1977),"Pier 11, East River, Manhattan.",1977,1970s,40.7830603,-73.9712488
63,Annie Hall (1977),"West 63rd Street and Columbus Avenue, Manhattan.",1977,1970s,40.7717344,-73.9829555
64,Annie (2014),"School, East 11th Street (btw Avenue A and 1st Avenue) Manhattan.",2014,2010s,40.7229941,-73.9885251
65,Annie (2014),"Subway, Franklin Street and West Broadway, Manhattan.",2014,2010s,40.720076,-74.0056711
66,Annie (2014),"Anchorage Place and Plymouth Street, Brooklyn.",2014,2010s,40.7038159,-73.9883077
67,Annie (2014),"Lexington Avenue and East 116th Street, East Harlem.",2014,2010s,40.7986353,-73.941628
68,Annie (2014),"Cortlandt Alley and Walker Street, Manhattan.",2014,2010s,40.7183168,-74.0018397
69,Annie (2014),Walker Street (btw Broadway and Cortlandt Alley) Manhattan.,2014,2010s,40.717786,-74.0022791
70,Annie (2014),"Ms. Hannigan Apartment, 366 West 127th Street and St. Nicholas Terrace, Harlem.",2014,2010s,40.8168462,-73.9500553
71,Annie (2014),"250 Greenwich Street and Barclay Street, Manhattan.",2014,2010s,40.7136509,-74.0116672
72,Annie (2014),"Will Stacks' Apartment, 150 Greenwich Street and Liberty Street, Manhattan.",2014,2010s,40.709733,-74.0117711
73,Annie (2014),"Beacon Theatre, 2124 Broadway and West 74th Street, Manhattan.",2014,2010s,40.7775456,-73.9750068
74,Annie (2014),"West 4th Street and West 12th Street, Manhattan.",2014,2010s,40.7375376,-74.0038985
75,Annie (2014),"Downtown Manhattan Heliport, 6 East River Piers, Manhattan.",2014,2010s,40.7830603,-73.9712488
76,Annie (2014),"Guggenheim Museum, 1071 5th Avenue and East 89th Street, Manhattan.",2014,2010s,40.7798082,-73.9503372
77,Annie (2014),"10th Avenue and West 55th Street, Manhattan.",2014,2010s,40.7678074,-73.9894966
78,Annie (2014),"Roosevelt Avenue and 55th Streets, Elmhurst, Queens.",2014,2010s,40.7449561,-73.9095843
79,Annie (2014),"Cafe Cluny, 284 West 12th Street and West 4th Street, Manhattan.",2014,2010s,40.7336421,-74.0026047
80,Annie (2014),"Shop, 357 West 127th Street and St Nicholas Terrace, Harlem.",2014,2010s,40.8168462,-73.9500553
81,Annie (2014),"Liberty State Park, Upper New York Bay, New Jersey",2014,2010s,40.0583238,-74.4056612
82,Annie (2014),"East Harlem School, 309 East 103rd Street (btw 1st and 2nd Avenues) East Harlem.",2014,2010s,40.7957399,-73.9389213
83,Annie (1982),"Radio City Music Hall, 1260 6th Avenue and West 50th Street, Manhattan.",1982,1980s,40.7627781,-73.9872089
84,Where the Sidewalk Ends (1950),"Times Square, Manhattan.",1950,1950s,40.759011,-73.9844722
85,Zoolander (2001),"Times Square, Manhattan.",2001,2000s,40.759011,-73.9844722
86,Zoolander (2001),"Derek Zoolander's Apartment, 80 Greene Street and Spring Street, Manhattan.",2001,2000s,41.4304236,-87.9883293
87,Zoolander (2001),"West Broadway and North Moore Street, Manhattan.",2001,2000s,40.7196776,-74.0059809
88,Zoolander (2001),"Sports Museum of America, 26 Broadway and Beaver Street, Manhattan.",2001,2000s,40.7051474,-74.0100295
89,You've Got Mail (1998),"Kathleen Kelly's Apartment, 328 West 89th Street and Riverside Drive, Manhattan.",1998,1990s,40.8158821,-73.9623705
90,You've Got Mail (1998),"Joe's Apartment, 210 Riverside Drive and West 93rd Street, Manhattan.",1998,1990s,40.7921354,-73.9717984
91,You've Got Mail (1998),"West End Avenue and West 85th Street, Manhattan.",1998,1990s,40.7882111,-73.9783636
92,You've Got Mail (1998),Broadway (btw West 83rd and 84th Streets) Manhattan.,1998,1990s,40.776592,-73.9527726
93,You've Got Mail (1998),Broadway (btw West 81st and 82nd Streets) Manhattan.,1998,1990s,40.7752992,-73.9536403
94,You've Got Mail (1998),Broadway (btw West 80th and 81st Streets) Manhattan.,1998,1990s,40.7844744,-73.9773671
95,You've Got Mail (1998),"Starbucks Coffee, 2252 Broadway and West 81st Street, Manhattan.",1998,1990s,40.7844744,-73.9773671
96,You've Got Mail (1998),"Verdi Square, West 72nd Street and Broadway, Manhattan.",1998,1990s,40.7786099,-73.9816265
97,You've Got Mail (1998),"Columbus Avenue and West 70th Street, Manhattan.",1998,1990s,40.7761118,-73.9797749
98,You've Got Mail (1998),"Book Shop, 106 West 69th Street and Columbus Avenue, Manhattan.",1998,1990s,40.7854736,-73.9729361
99,You've Got Mail (1998),"West 80th Street and Broadway, Manhattan.",1998,1990s,40.7845008,-73.9793935
100,You've Got Mail (1998),"Barney Greengrass, 541 Amsterdam Avenue and West 86th Street, Manhattan.",1998,1990s,40.7876872,-73.9750135
101,You've Got Mail (1998),"79th Street Boat Basin, Hudson River, Manhattan.",1998,1990s,40.7830603,-73.9712488
102,You've Got Mail (1998),West 94th Street (btw Columbus Avenue & Central Park West) Manhattan.,1998,1990s,40.7828647,-73.9653551
103,You've Got Mail (1998),"Fox Books Store, West 17th Street and 7th Avenue, Manhattan.",1998,1990s,40.73658,-74.0011456
104,You've Got Mail (1998),"Zabars, 2245 Broadway and West 80th Street, Manhattan.",1998,1990s,40.7838387,-73.9778271
105,You've Got Mail (1998),"Cafe Lalo, 201 West 83rd Street and Amsterdam Avenue, Manhattan.",1998,1990s,40.8134133,-73.9562303
106,You've Got Mail (1998),"Riverside Drive and West 111th Street, Manhattan.",1998,1990s,40.8054722,-73.9677045
107,You've Got Mail (1998),"Hudson River Greenway, Manhattan.",1998,1990s,40.7884993,-73.9823329
108,You've Got Mail (1998),"Ocean Grill, 382 Columbus Avenue (btw West 78th and 79th Streets) Manhattan.",1998,1990s,40.773338,-73.9550579
109,You've Got Mail (1998),"Gray's Papaya, 2090 Broadway (btw Amsterdam Avenue and 72nd Street) Manhattan.",1998,1990s,40.7697512,-73.9605925
110,You've Got Mail (1998),West 78th Street (btw Columbus Avenue & Amsterdam Avenue) Manhattan.,1998,1990s,40.8134133,-73.9562303
111,You've Got Mail (1998),"91st Street Garden, Riverside Park (btw West 90th & 91st Street) Manhattan.",1998,1990s,40.7814746,-73.9503554
112,You Stupid Man (2002),"Commerce Street and Bedford Street, Manhattan.",2002,2000s,40.7315597,-74.0049389
113,You Stupid Man (2002),"Pierre Hotel, 5th Avenue & East 61st Street, Manhattan.",2002,2000s,40.7628086,-73.965688
114,You Stupid Man (2002),"Washington Square Gardens, Greenwich Village, Manhattan.",2002,2000s,40.7314658,-73.9970956
115,You Stupid Man (2002),"Battery Park, Manhattan.",2002,2000s,40.7032775,-74.0170279
116,You Stupid Man (2002),"Bow Bridge (Mid-Park at 74th Street) Central Park, Manhattan.",2002,2000s,40.7775456,-73.9750068
117,You Stupid Man (2002),"6th Avenue and West 50th Street, Manhattan.",2002,2000s,40.7598896,-73.9804421
118,You Stupid Man (2002),"Ellipsis Cafe, 505 College Street and Palmerston Avenue, Toronto.",2002,2000s,43.6512322,-79.4082082
119,You're Nobody 'til Somebody Kills You (2012),"Times Square, Manhattan.",2012,2010s,40.759011,-73.9844722
120,You're a Big Boy Now (1966),"New York Public Library, 5th Avenue (btw 40th and 42nd Street) Manhattan.",1966,1960s,40.7127837,-74.0059413
121,You're a Big Boy Now (1966),"Times Square, Manhattan.",1966,1960s,40.759011,-73.9844722
122,You're a Big Boy Now (1966),"Sheep Meadow, Central Park (btw 66th and 69th Street) Manhattan.",1966,1960s,40.767812,-73.962014
123,You're a Big Boy Now (1966),"Bandshell, Central Park (from 66th to 72nd Street) Manhattan.",1966,1960s,40.7697512,-73.9605925
124,You're a Big Boy Now (1966),"Central Park Zoo, Central Park, Manhattan.",1966,1960s,40.7711329,-73.9741874
125,You're a Big Boy Now (1966),"Conservatory Water, Central Park (from 72nd to 75th Street) Manhattan.",1966,1960s,40.7707563,-73.9569408
126,You're a Big Boy Now (1966),"Alice in Wonderland, Central Park (East 74th Street) Manhattan.",1966,1960s,40.7701235,-73.9574128
127,You're a Big Boy Now (1966),"Cherry Lane Theatre, 38 Commerce Street and Bedford Street, Manhattan.",1966,1960s,40.7307284,-74.0044668
128,You're a Big Boy Now (1966),"Washington Square Gardens, Greenwich Village, Manhattan.",1966,1960s,40.7314658,-73.9970956
129,You're a Big Boy Now (1966),"(Near) Pennsylvania Station, 8th Avenue and West 34th Street, Manhattan.",1966,1960s,40.7530734,-73.9955337
130,You're a Big Boy Now (1966),"5th Avenue and West 39th Street, Manhattan.",1966,1960s,40.7515863,-73.9822815
131,You Don't Mess with the Zohan (2008),"Hair Salon, 5th Avenue and East 53rd Street, Manhattan.",2008,2000s,40.757781,-73.9695726
132,You Don't Mess with the Zohan (2008),"Park Avenue and East 52nd Street, Manhattan.",2008,2000s,40.7583897,-73.9729519
133,You Don't Mess with the Zohan (2008),"Greywacke Arch, Central Park, Manhattan.",2008,2000s,40.7711329,-73.9741874
134,You Don't Mess with the Zohan (2008),"Sheep Meadow, Central Park (btw 66th and 69th Street) Manhattan.",2008,2000s,40.767812,-73.962014
135,X/Y (2014),"Manhattan Bridge, East River, Lower Manhattan.",2014,2010s,40.7205751,-73.9733626
136,X/Y (2014),"Subway Station, Bleecker Street and Mulberry Street, Manhattan.",2014,2010s,40.7193269,-73.9973174
137,XX/XY (2002),"Washington Square Gardens, Greenwich Village, Manhattan.",2002,2000s,40.7314658,-73.9970956
138,XX/XY (2002),"Cafe, 108 Duane Street (btw Trimble Place & Broadway) Manhattan.",2002,2000s,40.759011,-73.9844722
139,XX/XY (2002),80 Leonard Street (btw Church Street and Broadway) Manhattan.,2002,2000s,40.759011,-73.9844722
140,X-Men (2000),"Statue of Liberty, Liberty Island, New York Harbor.",2000,2000s,,
141,The Wrong Man (1956),"Stork Club, 3 East 53rd Street and 5th Avenue, Manhattan.",1956,1950s,40.774734,-73.9653844
142,The Wrong Man (1956),"Subway Station, East 53rd Street and 5th Avenue, Manhattan.",1956,1950s,40.774734,-73.9653844
143,World Trade Center (2006),"Staten Island Ferry, New York Harbour.",2006,2000s,40.644189,-74.0725305
144,World Trade Center (2006),"Port Authority Bus Terminal, 625 8th Avenue and West 42nd Street, Manhattan.",2006,2000s,40.758034,-73.9917031
145,World Trade Center (2006),"World Trade Center, Financial, Manhattan.",2006,2000s,40.7134088,-74.011926
146,The World of Henry Orient (1964),"East 47th Street and 1st Avenue, Manhattan.",1964,1960s,40.7518401,-73.9674725
147,The World of Henry Orient (1964),"East 83rd Street and East End Avenue, Manhattan.",1964,1960s,40.7729938,-73.9461972
148,The World of Henry Orient (1964),"(Near East River) East 83rd Street and East End Avenue, Manhattan.",1964,1960s,40.7736925,-73.9456902
149,The World of Henry Orient (1964),"Conservatory Water Central Park, (from 72nd to 75th Street) Manhattan.",1964,1960s,40.7707563,-73.9569408
150,The World of Henry Orient (1964),"Alice in Wonderland, Central Park (East 74th Street) Manhattan.",1964,1960s,40.7701235,-73.9574128
151,The World of Henry Orient (1964),"Bow Bridge (Mid-Park at 74th Street) Central Park, Manhattan.",1964,1960s,40.7775456,-73.9750068
152,The World of Henry Orient (1964),"Washington Mews and 5th Avenue, Manhattan.",1964,1960s,40.7318461,-73.9966758
153,The World of Henry Orient (1964),"Washington Square North, Greenwich Village, Manhattan.",1964,1960s,40.7314658,-73.9970956
154,The World of Henry Orient (1964),"Washington Square Gardens, Greenwich Village, Manhattan.",1964,1960s,40.7314658,-73.9970956
155,The World of Henry Orient (1964),"10 Grove Street and Bedford Street, Manhattan.",1964,1960s,40.7324601,-74.0054566
156,The World of Henry Orient (1964),"The Mall, Central Park, Manhattan.",1964,1960s,40.7723522,-73.9715901
157,Working Girl (1988),"Statue of Liberty, Liberty Island, New York Harbor.",1988,1980s,,
158,Working Girl (1988),"Staten Island Ferry, New York Harbour.",1988,1980s,40.644189,-74.0725305
159,Working Girl (1988),"Tess's Workplace, 1 New York Plaza, Water Street and Broad Street, Manhattan.",1988,1980s,40.704464,-74.0115861
160,Working Girl (1988),"Carnegie Hill Mansion, 2 East 91st Street and 5th Avenue, Manhattan.",1988,1980s,40.774734,-73.9653844
161,Working Girl (1988),"South Street Seaport, East River, Manhattan.",1988,1980s,40.7830603,-73.9712488
162,Working Girl (1988),"Katherine's Brownstone, 80 Irving Place and East 19th Street, Manhattan.",1988,1980s,40.737027,-73.9865473
163,Working Girl (1988),"Apartment, 506 Richmond Terrace and York Avenue, Staten Island.",1988,1980s,40.6464625,-74.0892994
164,Working Girl (1988),"St. Stanislaus Kostka, 109 York Avenue, Staten Island.",1988,1980s,40.643835,-74.087141
165,Woo (1998),"West 42nd Street and 6th Avenue, Manhattan.",1998,1990s,40.7548529,-73.9841244
166,Woo (1998),5th Avenue (btw East 49th and 50th Streets) Manhattan.,1998,1990s,40.7627781,-73.9872089
167,Woo (1998),"Washington Square Gardens, Greenwich Village, Manhattan.",1998,1990s,40.7314658,-73.9970956
168,The Women (2008),"Saks Department Store, 5th Avenue and East 50th Street, Manhattan.",2008,2000s,40.7558356,-73.970781
169,The Wolf of Wall Street (2013),"Nassau Street and Wall Street, Manhattan.",2013,2010s,40.7071433,-74.0107108
170,The Wolf of Wall Street (2013),"Restaurant, 666 5th Avenue and West 52nd Street, Manhattan.",2013,2010s,40.7635447,-73.9851925
171,The Wolf of Wall Street (2013),"Rao's, 455 East 114th Street and Pleasant Avenue, Harlem.",2013,2010s,40.7957325,-73.9326694
172,The Wolf of Wall Street (2013),North Cove Marina (Near World Trade Center) Manhattan.,2013,2010s,40.7118011,-74.0131196
173,The Wolf of Wall Street (2013),"26 Federal Plaza on Broadway and Thomas Street, Manhattan.",2013,2010s,40.7165408,-74.0066957
174,The Wolf of Wall Street (2013),"(Near) Trump Tower, 725 5th Avenue and East 56th Street, Manhattan.",2013,2010s,40.7596085,-73.9680746
175,The Wolf of Wall Street (2013),"Shalimar Diner, 6368 Austin Street, Flushing, Queens.",2013,2010s,40.7273515,-73.8640608
176,The Wolf of Wall Street (2013),"Equitable Building, 120 Broadway and Pine Street, Manhattan.",2013,2010s,45.8573817,-111.3230019
177,The Wolf of Wall Street (2013),"Milan Condominium, 300 East 55th Street (btw 1st and 2nd Avenues) Manhattan.",2013,2010s,40.7830603,-73.9712488
178,The Wolf of Wall Street (2013),"The Four Seasons Restaurant, 99 East 52nd Street & Park Avenue, Manhattan.",2013,2010s,40.7779534,-73.9589565
179,Wolfen (1981),"Brooklyn Bridge, Lower East Side, Manhattan.",1981,1980s,40.7047531,-73.9953261
180,Wolfen (1981),"Battery Park, Manhattan.",1981,1980s,40.7032775,-74.0170279
181,Wolfen (1981),"Pedestrian Tunnel, (near Children's Zoo) Central Park, Manhattan.",1981,1980s,40.7711329,-73.9741874
182,Wolfen (1981),"Manhattan Bridge, East River, Lower Manhattan.",1981,1980s,40.7205751,-73.9733626
183,Wolfen (1981),"Federal Hall, Wall Street, Manhattan.",1981,1980s,40.7073993,-74.0102088
184,Wolf (1994),"East 14th Street and Broadway, Manhattan.",1994,1990s,40.7347947,-73.9907782
185,Wolf (1994),"Mayflower Hotel, 15 Central Park West and 61st Street, Manhattan.",1994,1990s,40.7628086,-73.965688
186,The Wiz (1978),"World Trade Center, Financial, Manhattan.",1978,1970s,40.7134088,-74.011926
187,Winter's Tale (2014),"Grand Central Terminal, 89 East 42nd Street and Park Avenue, Manhattan.",2014,2010s,40.7779534,-73.9589565
188,Winter's Tale (2014),"(Near) Mayor's Office, 51 Chambers Street and Centre Street, Manhattan.",2014,2010s,40.7163828,-74.0012118
189,Winter's Tale (2014),"Bandshell, Central Park (from 66th to 72nd Street) Manhattan.",2014,2010s,40.7697512,-73.9605925
190,Winter's Tale (2014),"The Mall, Central Park, Manhattan.",2014,2010s,40.7723522,-73.9715901
191,Winter's Tale (2014),"New York Sun, 292 West 41st Street and 8th Avenue, Manhattan.",2014,2010s,40.8165192,-73.9465432
192,Winter's Tale (2014),53 Prospect Park West (btw 1st & 2nd Streets) Brooklyn.,2014,2010s,42.855731,-89.3742259
193,Winter's Tale (2014),"New York Public Library, 5th Avenue (btw 40th and 42nd Street) Manhattan.",2014,2010s,40.7127837,-74.0059413
194,Winter's Tale (2014),"Gramercy Theatre, 127 East 23rd Street and Lexington Avenue, Manhattan.",2014,2010s,40.773008,-73.96032
195,Winter's Tale (2014),Gansevoort Street (btw Greenwich & Washington Streets) Manhattan.,2014,2010s,39.2732455,-96.5862065
196,Winter's Tale (2014),"(Near) Brooklyn Bridge, Lower East Side, Manhattan.",2014,2010s,40.7047531,-73.9953261
197,Winter Passing (2005),"Pink Pony Cafe, 176 Ludlow Street and Stanton Street, Manhattan.",2005,2000s,40.720757,-73.9861608
198,Winter Passing (2005),"Ludlow Street and Stanton Street, Manhattan.",2005,2000s,40.7212429,-73.9877741
199,Winter Passing (2005),"Commerce Street and Barrow Street, Manhattan.",2005,2000s,40.731642,-74.0061982
200,Willie and Phil (1980),"Cinema, 144 Bleecker Street and Laguardia Place, Manhattan.",1980,1980s,40.7280718,-73.9989723
201,Willie and Phil (1980),"Washington Square Gardens, Greenwich Village, Manhattan.",1980,1980s,40.7314658,-73.9970956
202,Willie and Phil (1980),"George Washington Bridge, Manhattan.",1980,1980s,40.8495457,-73.9424123
203,Willie and Phil (1980),"6th Avenue and West 3rd Street, Manhattan.",1980,1980s,40.7310719,-74.0014265
204,Willie and Phil (1980),"Sheridan Square and Grove Street, Manhattan.",1980,1980s,40.7333645,-74.0025786
205,Wild Orchid (1989),"Top of the Rock, 45 Rockefeller Plaza, Manhattan.",1989,1980s,40.7591523,-73.9777136
206,Wild Orchid (1989),"West 47th Street and 6th Avenue, Manhattan.",1989,1980s,40.7580271,-73.9818061
207,Who's That Girl (1987),"Trump Tower, Madison Avenue (btw West 56th and 57th Street) Manhattan.",1987,1980s,40.76729,-73.9841856
208,Who's That Girl (1987),"324 West 105th Street and Riverside Drive, Manhattan.",1987,1980s,40.8016022,-73.9705556
209,Who's That Girl (1987),"5th Avenue and East 83rd Street, Manhattan.",1987,1980s,40.7795899,-73.9618385
210,Who's That Girl (1987),"Wendy Worthington's Apartment, 16 East 94th Street & 5th Avenue, Manhattan.",1987,1980s,40.774734,-73.9653844
211,Who's That Girl (1987),"East 94th Street and 5th Avenue, Manhattan.",1987,1980s,40.7866108,-73.9567249
212,Whore 2 (1994),"Port Authority Bus Terminal, 625 8th Avenue and West 42nd Street, Manhattan.",1994,1990s,40.758034,-73.9917031
213,Whore 2 (1994),"Playground, West 46th Street (btw 9th and 10th Avenues) Manhattan.",1994,1990s,,
214,Whore 2 (1994),"406 West 48th Street and 9th Avenue, Manhattan.",1994,1990s,40.7622465,-73.9898985
215,Whore 2 (1994),"Hotel, 408 West 48th Street and 9th Avenue, Manhattan.",1994,1990s,40.7692123,-73.9847724
216,Whore 2 (1994),West 48th Street (btw 9th and 10th Avenues) Manhattan.,1994,1990s,40.7830603,-73.9712488
217,White Slaves of Chinatown (1964),East Broadway (btw Catherine Street and Market Street) Manhattan.,1964,1960s,40.71231,-73.9943508
218,White Slaves of Chinatown (1964),"Olga's Apartment, 22 East Broadway and Catherine Street, Manhattan.",1964,1960s,40.7120794,-73.9969256
219,Whirlygirl (2006),"Grand Central Terminal, 89 East 42nd Street and Park Avenue, Manhattan.",2006,2000s,40.7779534,-73.9589565
220,Whipped (2000),"Market, 1291 Madison Avenue and East 92nd Street, Manhattan.",2000,2000s,40.7824597,-73.9508414
221,Whipped (2000),"Battery Park, Manhattan.",2000,2000s,40.7032775,-74.0170279
222,Whipped (2000),"Wythe Avenue and North 3rd Street, Brooklyn.",2000,2000s,40.717271,-73.962851
223,Whipped (2000),"Relish Diner, 225 Wythe Avenue and North 3rd Street, Brooklyn.",2000,2000s,38.6591331,-90.1691563
224,Whipped (2000),"Washington Square Gardens, Greenwich Village, Manhattan.",2000,2000s,40.7314658,-73.9970956
225,Whipped (2000),"Subway, Battery Place and Broadway, Manhattan.",2000,2000s,40.759011,-73.9844722
226,Whipped (2000),"Magazine Shop, 551 Hudson Street and Perry Street, Manhattan.",2000,2000s,40.7352161,-74.0055169
227,Whipped (2000),"Madison Square Park, Madison Avenue and East 25th Street, Manhattan.",2000,2000s,40.7421402,-73.9870617
228,Whiplash (2014),"Alpine Cinema, 6817 5th Avenue and Bay Ridge Avenue, Brooklyn.",2014,2010s,40.626361,-74.008299
229,While We're Young (2014),"Decatur Street and Tompkins Avenue, Brooklyn.",2014,2010s,40.6803165,-73.943302
230,While We're Young (2014),"Park Avenue and East 48th Street, Manhattan.",2014,2010s,40.7559159,-73.974807
231,While We're Young (2014),"Gramercy Park South and Gramercy Park West, Manhattan.",2014,2010s,40.7379273,-73.9868586
232,While We're Young (2014),"Lincoln Center, 10 Lincoln Center Plaza, Manhattan.",2014,2010s,40.7830603,-73.9712488
233,While We're Young (2014),"Time Warner Center, 10 Columbus Circle and Broadway, Manhattan.",2014,2010s,40.759011,-73.9844722
234,Where God Left His Shoes (2007),"Washington Square Gardens, Greenwich Village, Manhattan.",2007,2000s,40.7314658,-73.9970956
235,Where God Left His Shoes (2007),5th Avenue (btw East 49th and 50th Streets) Manhattan.,2007,2000s,40.7627781,-73.9872089
236,Where God Left His Shoes (2007),"Hester Street and Mulberry Street, Manhattan.",2007,2000s,40.7181644,-73.9979454
237,When Will I Be Loved? (2004),"Times Square, Manhattan.",2004,2000s,40.759011,-73.9844722
238,When Will I Be Loved? (2004),"Barnard College, 3009 Broadway and West 117th Street, Manhattan.",2004,2000s,40.8042026,-73.9527445
239,When Will I Be Loved? (2004),"West 116th Street and Broadway, Manhattan.",2004,2000s,40.8080586,-73.9640084
240,When Will I Be Loved? (2004),"177 Perry Street and West Street, Manhattan.",2004,2000s,40.7345805,-74.0099991
241,When Will I Be Loved? (2004),"Greenwich Street and Perry Street, Manhattan.",2004,2000s,40.7349946,-74.0069935
242,When Will I Be Loved? (2004),"Greenwich Street and Barrow Street, Manhattan.",2004,2000s,40.7317894,-74.0078129
243,When Will I Be Loved? (2004),"Greenwich Street and Barrow Street, Manhattan.",2004,2000s,40.7317894,-74.0078129
244,When in Rome (2010),"Guggenheim Museum, 1071 5th Avenue and East 89th Street, Manhattan.",2010,2010s,40.7798082,-73.9503372
245,When in Rome (2010),"Beth's Apartment, 28 West 76th Street and Central Park West, Manhattan.",2010,2010s,40.7828647,-73.9653551
246,When in Rome (2010),"Bow Bridge (Mid-Park at 74th Street) Central Park, Manhattan.",2010,2010s,40.7775456,-73.9750068
247,When in Rome (2010),"The Mall, Central Park, Manhattan.",2010,2010s,40.7723522,-73.9715901
248,When in Rome (2010),"Bethesda Terrace, (Mid-Park at 72nd Street) Central Park, Manhattan.",2010,2010s,40.7787287,-73.9819095
249,When in Rome (2010),"Cherry Hill, Central Park, Manhattan.",2010,2010s,40.7748462,-73.9727014
250,When in Rome (2010),"Edwards Restaurant, 136 West Broadway and Thomas Street, Manhattan.",2010,2010s,40.7165408,-74.0066957
251,When in Rome (2010),"Merchant's Gate Fountain, Columbus Circle and Central Park West, Manhattan.",2010,2010s,40.7828647,-73.9653551
252,When in Rome (2010),"East 83rd Street and Madison Avenue, Manhattan.",2010,2010s,40.7788867,-73.9602326
253,When in Rome (2010),"White Street and Broadway, Manhattan.",2010,2010s,40.718046,-74.0030525
254,When in Rome (2010),"Blackout Restaurant, 337 West Broadway and Grand Street, Manhattan.",2010,2010s,40.7208445,-74.0006554
255,When Harry Tries to Marry (2011),"26 New Dock St, Brooklyn.",2011,2010s,40.7037973,-73.9933534
256,When Harry Tries to Marry (2011),"Brooklyn Bridge, Lower East Side, Manhattan.",2011,2010s,40.7047531,-73.9953261
257,When Harry Tries to Marry (2011),"Pace University, 161 William Street and Spruce Street, Manhattan.",2011,2010s,45.8574113,-111.3244218
258,When Harry Met Sally (1989),"Washington Square Park, Greenwich Village, Manhattan.",1989,1980s,40.7308228,-73.997332
259,When Harry Met Sally (1989),"Loeb Boathouse, Central Park (btw 74th and 75th Street) Manhattan.",1989,1980s,40.7707563,-73.9569408
260,When Harry Met Sally (1989),"West 77th Street and Central Park West, Manhattan.",1989,1980s,40.7794904,-73.9735866
261,When Harry Met Sally (1989),"Katz's Delicatessen, 205 East Houston Street and Ludlow Street, Manhattan.",1989,1980s,40.7187313,-73.9890522
262,When Harry Met Sally (1989),"Metropolitan Museum of Art, 1000 5th Avenue and East 82nd Street, Manhattan.",1989,1980s,40.7752992,-73.9536403
263,When Harry Met Sally (1989),"Washington Square Gardens, Greenwich Village, Manhattan.",1989,1980s,40.7314658,-73.9970956
264,When Harry Met Sally (1989),"Bethesda Terrace, (Mid-Park at 72nd Street) Central Park, Manhattan.",1989,1980s,40.7787287,-73.9819095
265,When Harry Met Sally (1989),"Jess & Marie Brownstone, 32 West 89th Street and Central Park West, Manhattan.",1989,1980s,40.7828647,-73.9653551
266,When Harry Met Sally (1989),"West 96th Street and Broadway, Manhattan.",1989,1980s,40.794624,-73.9716694
267,When Harry Met Sally (1989),"Cafe Luxembourg, 200 West 70th Street and Amsterdam Avenue, Manhattan.",1989,1980s,40.8134133,-73.9562303
268,When Harry Met Sally (1989),West Broadway (btw Prince Street and West Houston Street) Manhattan.,1989,1980s,40.7280788,-74.0029707
269,What Maisie Knew (2012),"Downing Street and 6th Avenue, Manhattan.",2012,2010s,40.7296786,-74.0022218
270,What Maisie Knew (2012),"Elisabeth Irwin High School, 276 6th Avenue and Bleecker Street, Manhattan.",2012,2010s,40.7287995,-74.0004449
271,What Maisie Knew (2012),"6th Avenue and Bleecker Street, Manhattan.",2012,2010s,40.7297345,-74.002187
272,What Maisie Knew (2012),"Conservatory Water Central Park, (from 72nd to 75th Street) Manhattan.",2012,2010s,40.7707563,-73.9569408
273,What Maisie Knew (2012),"Hudson Street and West 11th Street, Manhattan.",2012,2010s,40.7358441,-74.0059769
274,What Maisie Knew (2012),"High Line, 10th Avenue and West 17th Street, Manhattan.",2012,2010s,40.7416646,-74.0011315
275,What Maisie Knew (2012),"Gapstow Bridge, Central Park, Manhattan.",2012,2010s,40.7669254,-73.9737939
276,What Maisie Knew (2012),"Pond (Near Gapstow Bridge) Central Park, Manhattan.",2012,2010s,40.7669254,-73.9737939
277,Whatever Works (2009),"Cafe Vivaldi, 32 Jones Street and Bleecker Street, Manhattan.",2009,2000s,40.7287995,-74.0004449
278,Whatever Works (2009),"Yonah Schimmel's Bakery, 137 E Houston Street and Forsyth Street, Manhattan.",2009,2000s,40.7188482,-73.9925927
279,Whatever Works (2009),"Battery Park, Manhattan.",2009,2000s,40.7032775,-74.0170279
280,Whatever Works (2009),"East 10th Street and Stuyvesant Street, Manhattan.",2009,2000s,40.7300711,-73.9875443
281,Whatever Works (2009),"Courthouse, 1 Centre Street, Manhattan.",2009,2000s,40.7168285,-74.0014401
282,Whatever Works (2009),1st Avenue and East 43rd Street (near United Nations Plaza) Manhattan.,2009,2000s,40.7505781,-73.9685495
283,Whatever Works (2009),"Times Square, Manhattan.",2009,2000s,40.759011,-73.9844722
284,West 32nd (2007),West 32nd Street (btw 5th and 6th Avenue) Manhattan.,2007,2000s,40.7428095,-73.992866
285,West Side Story (1961),"Playground, 110th Street (btw 2nd and 3rd Avenues) Manhattan.",1961,1960s,40.7830603,-73.9712488
286,West Side Story (1961),110th Street (btw 2nd and 3rd Avenues) Manhattan.,1961,1960s,40.7830603,-73.9712488
287,We Own the Night (2007),"Katz's Delicatessen, 205 East Houston Street and Ludlow Street, Manhattan.",2007,2000s,40.7187313,-73.9890522
288,We'll Take Manhattan (2012),"The St. Regis Hotel, 2 East 55th Street and 5th Avenue, Manhattan.",2012,2010s,40.774734,-73.9653844
289,We'll Take Manhattan (2012),"Radio City Music Hall, 1260 6th Avenue and West 50th Street, Manhattan.",2012,2010s,40.7627781,-73.9872089
290,We'll Take Manhattan (2012),"Empire Diner, 210 10th Avenue and West 22nd Street, Manhattan.",2012,2010s,40.7446311,-73.9989763
291,We'll Take Manhattan (2012),"New York Public Library, 5th Avenue and East 42nd Street, Manhattan.",2012,2010s,40.7127837,-74.0059413
292,We'll Take Manhattan (2012),"Chambers Street and Centre Street, Manhattan.",2012,2010s,40.7131335,-74.0040497
293,We'll Take Manhattan (2012),"Saks Department Store, 5th Avenue and East 50th Street, Manhattan.",2012,2010s,40.7558356,-73.970781
294,We'll Take Manhattan (2012),"East 41st Street and 1st Avenue, Manhattan.",2012,2010s,40.7481328,-73.9701976
295,We'll Take Manhattan (2012),"East 41st Street and Tudor City Place, Manhattan.",2012,2010s,40.748407,-73.970937
296,We'll Take Manhattan (2012),5th Avenue (btw East 56th and 57th Street) Manhattan.,2012,2010s,40.76729,-73.9841856
297,We'll Take Manhattan (2012),"Central Park South and 5th Avenue, Manhattan.",2012,2010s,40.7642832,-73.9730166
298,We'll Take Manhattan (2012),"Brooklyn Bridge, Lower East Side, Manhattan.",2012,2010s,40.7047531,-73.9953261
299,We'll Take Manhattan (2012),"Gay Street and Waverly Place, Manhattan.",2012,2010s,40.7332487,-74.0007158
300,We'll Take Manhattan (2012),"Tudor City, Tudor City Place and East 42nd Street, Manhattan.",2012,2010s,40.7488831,-73.970568
301,Welcome to New York (2014),"Carlton Hotel, 88 Madison Avenue and East 28th Street, Manhattan.",2014,2010s,40.7426414,-73.9824624
302,Welcome to New York (2014),Franklin Street (btw Hudson and Varick Streets) Manhattan.,2014,2010s,40.7239109,-74.0060534
303,Welcome to New York (2014),"Apartment, 153 Franklin Street (btw Hudson and Varick Streets) Manhattan.",2014,2010s,40.7239109,-74.0060534
304,Welcome to New York (2014),"JFK International Airport, Queens.",2014,2010s,40.6413111,-73.7781391
305,Week-End at the Waldorf (1945),"Waldorf-Astoria Hotel, 301 Park Avenue (btw East 49th & 50th Street) Manhattan.",1945,1940s,40.7558356,-73.970781
306,Weekend at Bernie's 2 (1993),"Maxim's Restaurant, 680 Madison Avenue and East 61st Street, Manhattan.",1993,1990s,40.7628086,-73.965688
307,Weekend at Bernie's 2 (1993),"Times Square, Manhattan.",1993,1990s,40.759011,-73.9844722
308,Weekend at Bernie's 2 (1993),"Larry & Richard's Workplace, 375 Park Avenue and East 52nd Street, Manhattan.",1993,1990s,40.7570903,-73.9698771
309,Weekend at Bernie's (1989),"Central Park West and 72nd Street, Manhattan.",1989,1980s,40.7762315,-73.9759697
310,Weekend at Bernie's (1989),"Gapstow Bridge, Central Park, Manhattan.",1989,1980s,40.7669254,-73.9737939
311,Weekend at Bernie's (1989),"Conservatory Water Central Park, (from 72nd to 75th Street) Manhattan.",1989,1980s,40.7707563,-73.9569408
312,Weekend at Bernie's (1989),"Park Avenue and East 52nd Street, Manhattan.",1989,1980s,40.7583897,-73.9729519
313,The Wedding Date (2005),"Kat's Apartment, 79 Jane Street (btw Washingston & Greenwich Street) Manhattan.",2005,2000s,40.7227909,-74.0096582
314,The Wedding Date (2005),"Irving Place and East 19th Street, Manhattan.",2005,2000s,40.737027,-73.9865473
315,The Wedding Date (2005),"Nick's Apartment, 115 East 19th Street and Irving Place, Manhattan.",2005,2000s,40.7358757,-73.9874033
316,The Wedding Banquet (1993),"Brooklyn Bridge, Lower East Side, Manhattan.",1993,1990s,40.7047531,-73.9953261
317,The Wedding Banquet (1993),"Water Edge Restaurant, 4-01 44th Drive, Queens.",1993,1990s,40.7498133,-73.9553309
318,W.E. (2011),"Sotheby's, 1334 York Avenue and East 71st Street, Manhattan.",2011,2010s,40.7681348,-73.9588894
319,W.E. (2011),"Sant Ambroeus Restaurant, 1000 Madison Avenue and East 78th Street, Manhattan.",2011,2010s,40.7726606,-73.9555581
320,W.E. (2011),"East 90th Street and Park Avenue, Manhattan.",2011,2010s,40.7827834,-73.9554259
321,W.E. (2011),"Wally's Apartment, 1111 Park Avenue and East 90th Street, Manhattan.",2011,2010s,40.7809378,-73.9510524
322,W.E. (2011),"Broadway and Havemeyer Street, Brooklyn.",2011,2010s,40.7088852,-73.9592864
323,W.E. (2011),"The Mall, Central Park, Manhattan.",2011,2010s,40.7723522,-73.9715901
324,w Delta z (2007),"West Street and Greenpoint Avenue, Brooklyn.",2007,2000s,40.7297108,-73.9592533
325,w Delta z (2007),"Kent Avenue and South 2nd Street, Brooklyn.",2007,2000s,40.7147304,-73.9667693
326,The Way We Were (1973),"Boating Lake (btw East 74th and 75th Street) Central Park, Manhattan.",1973,1970s,40.7803414,-73.9796591
327,The Way We Were (1973),"The Plaza Hotel, 750 5th Avenue and Central Park South, Manhattan.",1973,1970s,40.7828647,-73.9653551
328,The Warriors (1979),"72nd Street Subway Station, West 72nd and Broadway, Manhattan.",1979,1970s,40.759011,-73.9844722
329,The Warriors (1979),"West 100th Street and Riverside Drive, Manhattan.",1979,1970s,40.7985788,-73.9731805
330,The Warriors (1979),"Fireman's Monument, Riverside Drive and West 100th Street, Manhattan.",1979,1970s,40.7961178,-73.9670961
331,The Warriors (1979),"Riverside Park, Manhattan.",1979,1970s,40.8012339,-73.9723096
332,What Happens in Vegas (2008),"Mason's Apartment, 45 Wall Street and William Street, Manhattan.",2008,2000s,40.7078285,-74.0081598
333,What Happens in Vegas (2008),"Subway, Broad Street and Wall Street, Manhattan.",2008,2000s,40.7060006,-74.008801
334,What Happens in Vegas (2008),"The Fuller's Apartment, 19 Old Fulton Street & Water Street, Brooklyn.",2008,2000s,42.1072755,-84.2469113
335,What Happens in Vegas (2008),"New York County Supreme Court, 60 Centre Street, Manhattan.",2008,2000s,40.7143245,-74.0014732
336,What Happens in Vegas (2008),"26 New Dock St, Brooklyn.",2008,2000s,40.7037973,-73.9933534
337,What Happens in Vegas (2008),"Marriage Counselling Office, 19 Gramercy Park & East 20th Street, Manhattan.",2008,2000s,40.7359972,-73.9822652
338,What Happens in Vegas (2008),"Joy's Workplace, New York Mercantile Exchange, 1 North End Avenue, Manhattan.",2008,2000s,40.7145187,-74.0168514
339,What Happens in Vegas (2008),"(Near Brooklyn Ice Cream Factory) 1 Water Street, Brooklyn.",2008,2000s,40.703195,-73.9947228
340,What Happens in Vegas (2008),Pearl Street (btw Plymouth Street and Water Street) Brooklyn.,2008,2000s,42.1072755,-84.2469113
341,Wanderlust (2012),"Estate Agent, 416 Bleecker Street and Bank Street, Manhattan.",2012,2010s,40.7365564,-74.0058348
342,Wanderlust (2012),"Linda's Apartment, 10 Christopher Street and Gay Street, Manhattan.",2012,2010s,40.7336847,-74.0003888
343,Wanderlust (2012),"West 40th Street and 6th Avenue, Manhattan.",2012,2010s,40.753554,-73.985043
344,Wanderlust (2012),"6th Avenue and West 46th Street, Manhattan.",2012,2010s,40.7573947,-73.9822584
345,Wanderlust (2012),"HBO Offices, 1100 6th Avenue and East 42nd Street, Manhattan.",2012,2010s,40.750354,-73.9734633
346,Wall Street: Money Never Sleeps (2010),"Shia LaBeouf's Apartment, 31 West 21st Street (btw 5th & 6th Avenues) Manhattan.",2010,2010s,40.7830603,-73.9712488
347,Wall Street: Money Never Sleeps (2010),"BVLGARI Store, 730 5th Avenue and West 57th Street, Manhattan.",2010,2010s,40.76729,-73.9841856
348,Wall Street: Money Never Sleeps (2010),"Gordon's Apartment, 161 West 61st Street and Amsterdam Avenue, Manhattan.",2010,2010s,40.8134133,-73.9562303
349,Wall Street: Money Never Sleeps (2010),"Shun Lee Restaurant, 43 West 65th Street and Columbus Avenue, Manhattan.",2010,2010s,40.7854736,-73.9729361
350,Wall Street: Money Never Sleeps (2010),"Central Park Zoo, Central Park, Manhattan.",2010,2010s,40.7711329,-73.9741874
351,Wall Street: Money Never Sleeps (2010),"Metropolitan Museum of Art, 1000 5th Avenue and East 82nd Street, Manhattan.",2010,2010s,40.7752992,-73.9536403
352,Wall Street: Money Never Sleeps (2010),"Winter Garden Atrium, World Financial Center, 220 Vesey Street, Manhattan.",2010,2010s,40.7132225,-74.0155468
353,Wall Street: Money Never Sleeps (2010),"Borders Bookstore, 100 Broadway and Pine Street, Manhattan.",2010,2010s,45.8573817,-111.3230019
354,Wall Street: Money Never Sleeps (2010),"Battery Park, Manhattan.",2010,2010s,40.7032775,-74.0170279
355,Wall Street: Money Never Sleeps (2010),"Winnie Gekko's Apartment, 41 Charlton Street and 6th Avenue, Manhattan.",2010,2010s,40.7428095,-73.992866
356,Wall Street (1987),"21 Club, 21 West 52nd Street (btw 5th and 6th Avenue) Manhattan.",1987,1980s,40.7428095,-73.992866
357,Wall Street (1987),"Sheep Meadow, Central Park (btw 66th and 69th Street) Manhattan.",1987,1980s,40.767812,-73.962014
358,Wall Street (1987),Tavern on the Green (btw West 66th and 67th Street) Manhattan.,1987,1980s,40.7665612,-73.9629317
359,Wall Street (1987),"New York County Supreme Court, 60 Centre Street, Financial, Manhattan.",1987,1980s,40.7830603,-73.9712488
360,A Walk Among the Tombstones (2014),West 181st Street (btw Cabrini Blvd and Pinehurst Avenue) Washington Heights.,2014,2010s,40.8514908,-73.9391197
361,A Walk Among the Tombstones (2014),"Alleyway, West 187th Street (btw Fort Washington Avenue & Overlook Terrace) Washington Heights.",2014,2010s,40.8549486,-73.9360256
362,A Walk Among the Tombstones (2014),"Green-Wood Cemetery, Crescent Water, Brooklyn.",2014,2010s,40.6781784,-73.9441579
363,A Walk Among the Tombstones (2014),"5th Avenue and 25th Street, Brooklyn.",2014,2010s,40.6591068,-73.9957525
364,A Walk Among the Tombstones (2014),"1961 Beverley Road and Ocean Avenue, Ditmas Park, Brooklyn.",2014,2010s,40.644851,-73.9600227
365,The Walk (2015),"Montréal, Québec, Canada.",2015,2010s,45.5016889,-73.567256
366,Wait Until Dark (1967),"Susie's Apartment, 5 St. Luke's Place and Hudson Street, Manhattan.",1967,1960s,40.7280616,-74.007204
367,The Wackness (2008),"The Mall, Central Park, Manhattan.",2008,2000s,40.7723522,-73.9715901
368,The Wackness (2008),"Bethesda Terrace, (Mid-Park at 72nd Street) Central Park, Manhattan.",2008,2000s,40.7787287,-73.9819095
369,The Visitor (2007),"Walter Vale's Apartment, 63 St Marks Place and 1st Avenue, Manhattan.",2007,2000s,40.7229941,-73.9885251
370,The Visitor (2007),"2nd Avenue and East 6th Street, East Village, Manhattan.",2007,2000s,40.727382,-73.9885461
371,The Visitor (2007),"New York University Kimmel Center, Washington Square South, Manhattan.",2007,2000s,40.7303442,-73.9981945
372,The Visitor (2007),"Washington Square Gardens, Greenwich Village, Manhattan.",2007,2000s,40.7314658,-73.9970956
373,The Visitor (2007),"Yatagan Kebab House, 104 MacDougal Street and Bleecker Street, Manhattan.",2007,2000s,40.7287995,-74.0004449
374,The Visitor (2007),"The Mall, Central Park, Manhattan.",2007,2000s,40.7723522,-73.9715901
375,The Visitor (2007),"Sheep Meadow, Central Park (btw 66th and 69th Street) Manhattan.",2007,2000s,40.767812,-73.962014
376,The Visitor (2007),"Subway Station, Central Park West and West 72nd Street, Manhattan.",2007,2000s,40.7787287,-73.9819095
377,The Visitor (2007),"Ametller Cafe, 35 Christopher Street and Stonewall Place, Manhattan.",2007,2000s,40.7337727,-74.001761
378,The Visitor (2007),"Staten Island Ferry, New York Harbour.",2007,2000s,40.644189,-74.0725305
379,The Visitor (2007),"Pink Pony Cafe, 176 Ludlow Street and Stanton Street, Manhattan.",2007,2000s,40.720757,-73.9861608
380,The Visitor (2007),"Majestic Theatre, 245 West 44th Street and 8th Avenue, Manhattan.",2007,2000s,40.8165192,-73.9465432
381,The Visitor (2007),"Times Square, Manhattan.",2007,2000s,40.759011,-73.9844722
382,The Visitor (2007),"Hundred Acres Restaurant, 38 MacDougal Street and Prince Street, Manhattan.",2007,2000s,40.724628,-73.9986114
383,The Visitor (2007),"John F Kennedy International Airport, Queens.",2007,2000s,40.6413111,-73.7781391
384,Violet and Daisy (2011),"West 160th Street & Fort Washington Avenue, Upper Manhattan.",2011,2010s,40.8364092,-73.9445871
385,Violet and Daisy (2011),"46 Fort Washington Avenue & West 161st Street, Upper Manhattan.",2011,2010s,40.8371023,-73.9443149
386,Violet and Daisy (2011),"West 160th Street & Fort Washington Avenue, Upper Manhattan.",2011,2010s,40.8364092,-73.9445871
387,Violet and Daisy (2011),"Conservatory Water Central Park, (from 72nd to 75th Street) Manhattan.",2011,2010s,40.7707563,-73.9569408
388,Violet and Daisy (2011),"Trefoil Arch, Central Park (near 73rd Street) Manhattan.",2011,2010s,40.7695527,-73.9580297
389,Violet and Daisy (2011),"26 New Dock Street, Brooklyn.",2011,2010s,40.7037973,-73.9933534
390,Violet and Daisy (2011),"West 136th Street and Broadway, Upper Manhattan.",2011,2010s,40.8208339,-73.9546956
391,Violet and Daisy (2011),"West 156th Street and Riverside Drive, Upper Manhattan.",2011,2010s,40.8344318,-73.9476871
392,Violet and Daisy (2011),"Broome Street and Elizabeth Street, Manhattan.",2011,2010s,40.719867,-73.9952635
393,Vicky Cristina Barcelona (2008),"Pier 17, South Street Seaport, East River, Manhattan. ",2008,2000s,40.7830603,-73.9712488
394,Spread (2009),"NY Waterway Ferry, East River, New York.",2009,2000s,40.7127837,-74.0059413
395,Spread (2009),"60 White Street and Franklin Place, Manhattan.",2009,2000s,40.7183326,-74.0036543
396,Spread (2009),White Street (btw Franklin Place and Church Street) Manhattan.,2009,2000s,40.7149347,-74.007951
397,Spread (2009),"Franklin Place and White Street, Manhattan.",2009,2000s,40.7183326,-74.0036543
398,Veronika Decides to Die (2009),"Veronika’s Apartment, 20 Broadway and Kent Avenue, Brooklyn.",2009,2000s,40.7063541,-73.9681937
399,Veronika Decides to Die (2009),Williamsburg Bridge.,2009,2000s,40.7143492,-73.9744315
400,The Verdict (1982),"Vazac's Horseshoe Bar, 108 East 7th Street and Avenue B, Manhattan.",1982,1980s,40.7256804,-73.9807682
401,Vanya on 42nd Street (1994),"New Amsterdam Theatre, 214 West 42nd Street and 7th Avenue, Manhattan.",1994,1990s,40.73658,-74.0011456
402,Vanilla Sky (2001),"David Aames Apartment, 1 West 72nd Street and Central Park West, Manhattan.",2001,2000s,40.7828647,-73.9653551
403,Vanilla Sky (2001),"Driveway, West 73rd Street and Central Park West, Manhattan.",2001,2000s,40.7769119,-73.9754654
404,Vanilla Sky (2001),"West 73rd Street and Central Park West, Manhattan.",2001,2000s,40.7769119,-73.9754654
405,Vanilla Sky (2001),"Times Square, Manhattan.",2001,2000s,40.759011,-73.9844722
406,Vanilla Sky (2001),"Aames Publishing, 42 West 44th Street and 5th Avenue, Manhattan.",2001,2000s,40.774734,-73.9653844
407,Vanilla Sky (2001),"Sofia Serrano's Loft, 57 Jay Street and Water Street, Brooklyn.",2001,2000s,42.1072755,-84.2469113
408,Vanilla Sky (2001),"Water Street and Jay Street, Brooklyn.",2001,2000s,40.7030974,-73.9866491
409,Vanilla Sky (2001),Riverside Drive (between West 96th and 97th Streets) Manhattan.,2001,2000s,40.7858826,-73.9488283
410,Vanilla Sky (2001),"Riverside Drive and West 96th Street, Manhattan.",2001,2000s,40.7940591,-73.9703639
411,Vanilla Sky (2001),"The Mall, Central Park, Manhattan.",2001,2000s,40.7723522,-73.9715901
412,Vanilla Sky (2001),"Subway, 7th Avenue South and Christopher Street, Manhattan.",2001,2000s,40.7333734,-74.0043918
413,Vanilla Sky (2001),"Grove Street and West 4th Street, Manhattan.",2001,2000s,40.7333645,-74.0025786
414,Vanilla Sky (2001),"Plymouth Street and Bridge Street, Brooklyn.",2001,2000s,40.7036931,-73.9846293
415,Vanilla Sky (2001),"Bridge Street and Plymouth Street, Brooklyn.",2001,2000s,40.7036931,-73.9846293
416,Vanilla Sky (2001),"Water Street and Jay Street, Brooklyn.",2001,2000s,40.7030974,-73.9866491
417,Vanilla Sky (2001),12 East 57th Street (btw 5th Avenue and Madison Avenue) Manhattan.,2001,2000s,40.7773054,-73.9614006
418,Vamps (2012),"Times Square, Manhattan.",2012,2010s,40.759011,-73.9844722
419,Vamps (2012),"Bleecker Bob's Records, 118 West 3rd Street and MacDougal Street, Manhattan.",2012,2010s,40.7299997,-74.0005119
420,Vamps (2012),East 7th Street (btw 1st and 2nd Avenues) Manhattan.,2012,2010s,40.7830603,-73.9712488
421,Vamps (2012),"The Girl’s Apartment, 63 East 7th Street (btw 1st and 2nd Avenues) Manhattan.",2012,2010s,40.7830603,-73.9712488
422,Vampire's Kiss (1988),"Office, East 23rd Street (btw Madison Avenue and Park Avenue) Manhattan.",1988,1980s,40.7779534,-73.9589565
423,Vampire's Kiss (1988),"Club, 20 7th Avenue South and St. Lukes Place, Manhattan.",1988,1980s,40.7301227,-74.0055947
424,Vampire's Kiss (1988),"Munson Diner, 600 West 48th Street and 11th Avenue, Manhattan.",1988,1980s,40.7437031,-74.008656
425,Vampire's Kiss (1988),"Peter's Workplace, 51 Madison Avenue and East 26th Street, Manhattan.",1988,1980s,40.7407178,-73.9817567
426,Vampire's Kiss (1988),"Magickal Childe, 35 West 19th Street (btw 5th & 6th Avenues) Manhattan.",1988,1980s,40.7830603,-73.9712488
427,Vampire's Kiss (1988),"St. Nicholas Church, 288 East 10th Street and Avenue A, Manhattan.",1988,1980s,40.7260554,-73.9835429
428,Vampire's Kiss (1988),"Nightclub, 220 12th Avenue (btw West 27th and 28th Street) Manhattan.",1988,1980s,40.7490935,-73.9969443
429,Vampire's Kiss (1988),"Peter's Brownstone, 110 East 17th Street and Irving Place, Manhattan.",1988,1980s,40.7358757,-73.9874033
430,The Usual Suspects (1995),"Law Offices, 175 5th Avenue (btw East 22nd and 23rd Street) Manhattan.",1995,1990s,40.7452994,-73.9984832
431,Uptown Girls (2003),"Molly Gunn's Apartment, 2109 Broadway and West 73rd Street, Manhattan.",2003,2000s,40.7792284,-73.9809439
432,Uptown Girls (2003),"Henri Bendel Department Store, 712 5th Avenue and West 56th Street, Manhattan.",2003,2000s,40.7666124,-73.9847104
433,Uptown Girls (2003),"1st Avenue and East 83rd Street, Manhattan.",2003,2000s,40.774927,-73.9507894
434,Uptown Girls (2003),"Sheep Meadow, Central Park (btw 66th and 69th Street) Manhattan.",2003,2000s,40.767812,-73.962014
435,Uptown Girls (2003),"Stingy Lulu's Diner, 129 St Mark's Place and Avenue A, Manhattan.",2003,2000s,40.7260554,-73.9835429
436,Uptown Girls (2003),"1001 5th Avenue and East 82nd Street, Manhattan.",2003,2000s,40.7789593,-73.9623038
437,Uptown Girls (2003),"Bethesda Terrace, (Mid-Park at 72nd Street) Central Park, Manhattan.",2003,2000s,40.7787287,-73.9819095
438,Uptown Girls (2003),"Bow Bridge, (Mid-Park at 74th Street) Central Park, Manhattan.",2003,2000s,40.7775456,-73.9750068
439,Uptown Girls (2003),"Christies, 1230 Avenue of the Americas and West 49th Street, Manhattan.",2003,2000s,40.7621437,-73.9877012
440,Up the Sandbox (1972),"Margaret's Apartment, 601 West 112th Street and Broadway, Manhattan.",1972,1970s,40.759011,-73.9844722
441,Up the Sandbox (1972),"Broadway and West 112th Street, Manhattan.",1972,1970s,40.8054183,-73.9656807
442,Up the Sandbox (1972),"Riverside Park, Riverside Drive, Manhattan.",1972,1970s,40.8071226,-73.9671622
443,Up the Sandbox (1972),"Statue of Liberty, Liberty Island, New York Harbor.",1972,1970s,,
444,Up the Down Staircase (1967),East 100th Street (btw East River Drive and 1st Avenue) Manhattan.,1967,1960s,40.7229941,-73.9885251
445,Up the Down Staircase (1967),East 100th Street (btw East River Drive and 1st Avenue) Manhattan.,1967,1960s,40.7229941,-73.9885251
446,Up the Down Staircase (1967),"East 100th Street and 1st Avenue, Manhattan.",1967,1960s,40.7858117,-73.9428526
447,(Untitled) (2009),"Broadway and West 24th Street, Manhattan.",2009,2000s,40.7423111,-73.989348
448,(Untitled) (2009),"West 25th Street and 10th Avenue, Chelsea, Manhattan.",2009,2000s,40.7489821,-74.0032397
449,(Untitled) (2009),"Art Gallery, 512 West 25th Street and 10th Avenue, Manhattan.",2009,2000s,40.7545942,-73.999152
450,U.S. Marshals (1998),1st Avenue (btw East 42nd and 45th Street) Manhattan.,1998,1990s,40.7591625,-73.988378
451,U.S. Marshals (1998),"Mark's Apartment, 45 Tudor City Place and East 43rd Street, Manhattan.",1998,1990s,40.7521305,-73.9755699
452,U.S. Marshals (1998),"Queensboro Bridge, East 59th Street (btw Manhattan and Queens) New York.",1998,1990s,40.7282239,-73.7948516
453,U.S. Marshals (1998),"60 East 42nd Street and Park Avenue, Manhattan.",1998,1990s,40.7521824,-73.9777896
454,An Unmarried Woman (1978),"Spring Street and Wooster Street, Manhattan.",1978,1970s,40.7241796,-74.0011327
455,An Unmarried Woman (1978),"140 Broadway and Liberty Street, Manhattan.",1978,1970s,40.7091466,-74.0105538
456,An Unmarried Woman (1978),"Rockefeller Center, 5th Avenue (btw 49th and 50th Streets) Manhattan.",1978,1970s,40.7627781,-73.9872089
457,An Unmarried Woman (1978),"Erica's Apartment, 254 East 68th Street and 2nd Avenue, Manhattan.",1978,1970s,40.7643734,-73.9616091
458,Unfaithfully Yours (1984),"West 43rd Street and 5th Avenue, Manhattan.",1984,1980s,40.7541608,-73.9803992
459,Unfaithfully Yours (1984),"Private Detective Office, 200 5th Avenue and West 23rd Street, Manhattan.",1984,1980s,40.7452994,-73.9984832
460,Unfaithfully Yours (1984),"Carnegie Hall, 881 7th Avenue and West 56th Street, Manhattan.",1984,1980s,40.7648499,-73.9805371
461,Unfaithfully Yours (1984),"The Plaza Hotel, 750 5th Avenue and Central Park South, Manhattan.",1984,1980s,40.7828647,-73.9653551
462,Unfaithfully Yours (1984),"Claude Eastman's Apartment, 1009 Park Avenue and East 85th Street, Manhattan.",1984,1980s,40.7772674,-73.9523971
463,Unfaithful (2002),"Paul Martel's Loft, 70 Mercer Street and Broome Street, Manhattan.",2002,2000s,40.7193626,-73.9942698
464,Unfaithful (2002),"Grand Central Terminal, 89 East 42nd Street and Park Avenue, Manhattan.",2002,2000s,40.7779534,-73.9589565
465,Unfaithful (2002),"East Village Cinema, 181 2nd Avenue and East 12th Street, Manhattan.",2002,2000s,40.7300043,-73.9835255
466,Unfaithful (2002),"Café Noir, 32 Grand Street and Thompson Street, SoHo, Manhattan.",2002,2000s,40.7248988,-74.0026214
467,Uncertainty (2009),"East Broadway and Catherine Street, Chinatown, Manhattan.",2009,2000s,40.713468,-73.9973
468,Uncertainty (2009),"Union Square Station, East 14th Street, Manhattan.",2009,2000s,40.742903,-73.9927978
469,Uncertainty (2009),"Chambers Street and Centre Street, Manhattan.",2009,2000s,40.7131335,-74.0040497
470,Uncertainty (2009),"Municipal Building, Centre Street, Financial, Manhattan.",2009,2000s,40.7830603,-73.9712488
471,Uncertainty (2009),"United Nations Headquarters, 1st Avenue (btw 42nd and 48th street) Manhattan.",2009,2000s,40.761038,-73.987015
472,Uncertainty (2009),"New York Public Library, 5th Avenue (btw 40th and 42nd Street) Manhattan.",2009,2000s,40.7127837,-74.0059413
473,Uncertainty (2009),"Cinema Village, 22 East 12th Street and 5th Avenue, Manhattan.",2009,2000s,40.774734,-73.9653844
474,Uncertainty (2009),"Water Street and Bridge Street, Brooklyn.",2009,2000s,40.703032,-73.984663
475,Uncertainty (2009),"Prospect Street and Washington Street, Brooklyn.",2009,2000s,40.7007381,-73.9897263
476,Uncertainty (2009),"Manhattan Bridge, Lower East Side, Manhattan.",2009,2000s,40.7068494,-73.9905781
477,Uncertainty (2009),"Brooklyn Bridge, Lower East Side, Manhattan.",2009,2000s,40.7047531,-73.9953261
478,Two Weeks Notice (2002),"Wade Office Building, Vietnam Veterans Plaza, Financial, Manhattan.",2002,2000s,40.7383265,-74.0132732
479,Two Weeks Notice (2002),"Restaurant (Fraunces Tavern Museum) 54 Pearl Street and Broad Street, Manhattan.",2002,2000s,40.704464,-74.0115861
480,Two Weeks Notice (2002),"Gunther Building, 473 Broome Street and Greene Street, Manhattan.",2002,2000s,40.7225629,-74.0014159
481,Two Weeks Notice (2002),"St Mark's Church, 131 East 10th Street and 2nd Avenue, Manhattan.",2002,2000s,40.7643734,-73.9616091
482,Two Weeks Notice (2002),"Grand Hotel, 24 White Street and 6th Avenue, Manhattan.",2002,2000s,40.7428095,-73.992866
483,Two Weeks Notice (2002),Fulton Ferry Pier (Near Brooklyn Bridge) Brooklyn.,2002,2000s,40.6927004,-74.001551
484,Two Weeks Notice (2002),"Legal Aid Office, 316 East 83rd Street and 1st Avenue, Manhattan.",2002,2000s,40.7229941,-73.9885251
485,Two Weeks Notice (2002),"East 83rd Street and 1st Avenue, Manhattan.",2002,2000s,40.774927,-73.9507894
486,Two of a Kind (1983),"Debbie's Apartment, 101 West 74th street and Columbus Avenue, Manhattan.",1983,1980s,40.7854736,-73.9729361
487,Two of a Kind (1983),East River (btw Brooklyn Bridge and Manhattan Bridge) Manhattan.,1983,1980s,40.7112295,-73.992999
488,Two of a Kind (1983),"Peking Ship, South Street Seaport, East River, Manhattan.",1983,1980s,40.7830603,-73.9712488
489,Two of a Kind (1983),"New York County Supreme Court, 60 Centre Street, Financial, Manhattan.",1983,1980s,40.7830603,-73.9712488
490,Two Night Stand (2014),"Club, 22 Kosciuszko Street and Spencer Street, Brooklyn.",2014,2010s,40.6946849,-73.9552099
491,Two Lovers (2009),"240 Central Park South and Columbus Circle, Manhattan.",2009,2000s,40.7769748,-73.9793585
492,Two Lovers (2009),"Lincoln Center, Columbus Avenue (btw West 63rd and 64th Street) Manhattan.",2009,2000s,40.7646896,-73.9643068
493,Two Lovers (2009),"Central Park West and West 63rd Street, Manhattan.",2009,2000s,40.7705407,-73.980117
494,Two Lovers (2009),"West 63rd Street and Central Park West, Manhattan.",2009,2000s,40.7705407,-73.980117
495,200 Cigarettes (1999),"Ace Bar, 531 East 5th Street (btw Avenues A and B) Manhattan. 
",1999,1990s,40.7830603,-73.9712488
496,200 Cigarettes (1999),"Cindy's Apartment, 365 West End Avenue and West 77th Street, Manhattan.",1999,1990s,40.7818433,-73.9792822
497,200 Cigarettes (1999),"Avenue B and East 9th Street, Manhattan.",1999,1990s,40.7262882,-73.9803296
498,200 Cigarettes (1999),Avenue A (btw East 7th Street and St Mark's Place) Manhattan.,1999,1990s,40.7285977,-73.9876718
499,200 Cigarettes (1999),East 6th Street (btw 1st and 2nd Avenues) Manhattan.,1999,1990s,40.7830603,-73.9712488
500,Two Girls and a Guy (1997),"Blake's Apartment, 79 Leonard Street (btw Broadway & Church Street) Manhattan.",1997,1990s,40.7149347,-74.007951
501,Two for the Seesaw (1962),"Brooklyn Bridge, Lower East Side, Manhattan.",1962,1960s,40.7047531,-73.9953261
502,Two for the Seesaw (1962),"Dover Street and Water Street, Manhattan.",1962,1960s,40.7087988,-74.0008673
503,Two for the Seesaw (1962),"East 10th Street and 2nd Avenue, Manhattan.",1962,1960s,40.7297665,-73.9868067
504,Two for the Seesaw (1962),"New York Public Library, 5th Avenue (btw 40th and 42nd Street) Manhattan.",1962,1960s,40.7127837,-74.0059413
505,Two for the Seesaw (1962),"Pete's Tavern, 129 East 18th Street and Irving Place, Manhattan.",1962,1960s,40.7358757,-73.9874033
506,Two for the Seesaw (1962),"Restaurant, 149 West 4th Street and 6th Avenue, Manhattan.",1962,1960s,40.7428095,-73.992866
507,Two for the Seesaw (1962),"Jerry's Apartment, 245 Mulberry Street and Prince Street, Manhattan.",1962,1960s,40.724628,-73.9986114
508,Two for the Seesaw (1962),161 Prince Street (btw Thompson Street and West Broadway) Manhattan.,1962,1960s,40.720076,-74.0056711
509,Two for the Money (2005) ,"Brooklyn Bridge, Lower East Side, Manhattan.",2005,2000s,40.7047531,-73.9953261
510,Two for the Money (2005) ,"Walter Abrams' Apartment / Office, 8 Furman Street, Brooklyn.",2005,2000s,40.7027311,-73.9948905
511,Two for the Money (2005) ,"Cranberry Street and Columbia Heights, Brooklyn.",2005,2000s,40.7003033,-73.9953952
512,Two for the Money (2005) ,Fulton Ferry Pier (Near Brooklyn Bridge) Brooklyn.,2005,2000s,40.6927004,-74.001551
513,Two for the Money (2005) ,"Park Way, Brooklyn Heights Promenade, Brooklyn.",2005,2000s,40.6965319,-73.9977917
514,Two for the Money (2005) ,"21 Club, 21 West 52nd Street (btw 5th and 6th Avenue) Manhattan.",2005,2000s,40.7428095,-73.992866
515,Two for the Money (2005) ,"Times Square, Manhattan.",2005,2000s,40.759011,-73.9844722
516,2 Days in New York (2012),"Mott Street and Kenmare Street, Manhattan.",2012,2010s,40.7209004,-73.995751
517,2 Days in New York (2012),"Tompkins Square Park, East 7th Street and Avenue A, Manhattan.",2012,2010s,40.7260554,-73.9835429
518,2 Days in New York (2012),"Empire State Building, 350 5th Avenue and West 34th Street, Manhattan.",2012,2010s,40.7484456,-73.9845633
519,2 Days in New York (2012),"Washington Square North and 5th Avenue, Manhattan.",2012,2010s,40.7314123,-73.9969848
520,2 Days in New York (2012),"Staten Island Ferry, New York Harbour.",2012,2010s,40.644189,-74.0725305
521,2 Days in New York (2012),"Crunch Fitness, 404 Lafayette Street (btw Astor Place & East 4th Street) Manhattan.",2012,2010s,40.7251936,-73.9870472
522,2 Days in New York (2012),"Restaurant, 10 Downing Street and 6th Avenue, Manhattan.",2012,2010s,40.7428095,-73.992866
523,2 Days in New York (2012),"P.S.63, 121 East 3rd Street (btw 1st Avenue and Avenue A) Manhattan.",2012,2010s,40.7260554,-73.9835429
524,2 Days in New York (2012),"Massage Salon, 163 Mott Street (btw Grand Street and Broom Street) Manhattan.                                                                                                                                                                                                                                                                                                                                                                                                                                                                                                                                                                                                                                                                                                                                                                                                                                                                                                                                                                                                                                       ",2012,2010s,,
525,2 Days in New York (2012),"Odessa Café, 119 Avenue A (btw East 7th Street & St. Marks Place) Manhattan.",2012,2010s,40.7285977,-73.9876718
526,2 Days in New York (2012),"Belvedere Castle, Central Park, Manhattan.",2012,2010s,40.7794302,-73.9690677
527,2012 (2009),"Times Square, Manhattan.",2009,2000s,40.759011,-73.9844722
528,12 Angry Men (1957),"New York County Supreme Court, 60 Centre Street, Financial, Manhattan.",1957,1950s,40.7830603,-73.9712488
529,Twelve (2010),"521 Park Avenue and East 60th Street, Manhattan.",2010,2010s,40.7634977,-73.9692303
530,Twelve (2010),"West 145th Street and Lenox Avenue, Manhattan.",2010,2010s,40.8204825,-73.9362933
531,Twelve (2010),"Times Square, Manhattan.",2010,2010s,40.759011,-73.9844722
532,Twelve (2010),"Cherry Street and Pike Street, Manhattan.",2010,2010s,40.7108764,-73.9919848
533,Twelve (2010),Park Avenue (btw East 60th & 61st Street) Manhattan.,2010,2010s,40.7628086,-73.965688
534,Twelve (2010),"Central Park Zoo, Manhattan.",2010,2010s,40.7685787,-73.9703305
535,Twelve (2010),"Lexington Avenue and East 70th Street, Manhattan.",2010,2010s,40.769113,-73.963161
536,Twelve (2010),"Sicaffe Cafe, 964 Lexington Avenue and East 70th Street, Manhattan.",2010,2010s,40.7675122,-73.9593709
537,Twelve (2010),"Church, 160 Central Park West and West 76th Street, Manhattan.",2010,2010s,40.7812025,-73.9797543
538,Twelve (2010),"Townhouse, 34 West 10th Street and 5th Avenue, Manhattan.",2010,2010s,40.774734,-73.9653844
539,27 Dresses (2008),"Madison Avenue and East 50th Street, Manhattan.",2008,2000s,40.7578684,-73.9756224
540,27 Dresses (2008),"New York Palace Hotel, 455 Madison Avenue and East 51st Street, Manhattan.",2008,2000s,40.7562723,-73.9698798
541,27 Dresses (2008),"25 Washington Street and Plymouth Street, Brooklyn.",2008,2000s,40.7038543,-73.9895342
542,27 Dresses (2008),"Kevin's Workplace, NYJ Office, East 45th Street & Madison Avenue, Manhattan.",2008,2000s,40.7773054,-73.9614006
543,27 Dresses (2008),"Jane's Workplace, Gansevoort Street and Greenwich Street, Manhattan.",2008,2000s,40.7227909,-74.0096582
544,27 Dresses (2008),"Cherry Hill, Central Park, Manhattan.",2008,2000s,40.7748462,-73.9727014
545,27 Dresses (2008),"Bethesda Terrace, (Mid-Park at 72nd Street) Central Park, Manhattan.",2008,2000s,40.7787287,-73.9819095
546,27 Dresses (2008),"Loeb Boathouse, Central Park, Manhattan.",2008,2000s,40.7711329,-73.9741874
547,27 Dresses (2008),"Jane's Apartment, 310 East 9th Street (btw 1st & 2nd Avenue) Manhattan.",2008,2000s,40.7643734,-73.9616091
548,25th Hour (2002),Carl Schurz Park (East River) Manhattan.,2002,2000s,40.7830603,-73.9712488
549,25th Hour (2002),"Carl Schurz Park, East End Avenue and East 86th Street, Manhattan.",2002,2000s,40.7751302,-73.9436973
550,25th Hour (2002),"Ground Zero, Financial District, Manhattan.",2002,2000s,40.7119878,-74.0104079
551,25th Hour (2002),"Washington Street and Water Street, Brooklyn.",2002,2000s,40.7031992,-73.9895833
552,28 Days (2000),"Crosby Street and Prince Street, Manhattan.",2000,2000s,40.7238833,-73.9969553
553,28 Days (2000),"Lafeyette Street and Prince Street, Manhattan.",2000,2000s,40.7236669,-73.9964723
554,28 Days (2000),Park Avenue (near to Grand Central Terminal) Manhattan.,2000,2000s,40.7830603,-73.9712488
555,28 Days (2000),"Gwen's Apartment, 104 Crosby Street and Prince Street, Manhattan.",2000,2000s,40.724628,-73.9986114
556,Turn the River (2007),"East 98th Street and 5th Avenue, Manhattan.",2007,2000s,40.7891959,-73.9548171
557,Spread (2009),"Mayor's Office, 51 Chambers Street and Centre Street, Manhattan.",2009,2000s,40.7163828,-74.0012118
558,Spread (2009),"Battery Park, Manhattan.",2009,2000s,40.7032775,-74.0170279
559,Spread (2009),"New York County Supreme Court, 60 Centre Street, Financial, Manhattan.",2009,2000s,40.7830603,-73.9712488
560,Spread (2009),"News Building, 220 East 42nd Street (btw 2nd and 3rd Avenue) Manhattan.",2009,2000s,40.7684404,-73.9615733
561,Spread (2009),"Queensboro Bridge, East 59th Street (btw Manhattan and Queens).",2009,2000s,40.7282239,-73.7948516
562,Trust the Man (2005),"Broadway and West 68th Street, Manhattan.",2005,2000s,40.7754414,-73.982069
563,Trust the Man (2005),"Barneys, 660 Madison Avenue and East 61st Street, Manhattan.",2005,2000s,40.7628086,-73.965688
564,Trust the Man (2005),"Serendipity III, 225 East 60th Street (btw 2nd and 3rd Avenue) Manhattan.",2005,2000s,40.7684404,-73.9615733
565,Trust the Man (2005),"Pastis Restaurant, 9 Little West 12th Street and 9th Avenue, Manhattan.",2005,2000s,40.7692123,-73.9847724
566,Trust the Man (2005),"Subway Station, Bleecker Street and Mulberry Street, Manhattan.",2005,2000s,40.7193269,-73.9973174
567,Trust the Man (2005),"Tartine Cafe, 253 West 11th Street and West 4th Street, Manhattan.",2005,2000s,40.7336421,-74.0026047
568,Trust the Man (2005),"Sardi's Restaurant, 234 West 44th Street and 7th Avenue, Manhattan.",2005,2000s,40.73658,-74.0011456
569,Trust the Man (2005),"Lincoln Center, Columbus Avenue (btw West 63rd and 64th Street) Manhattan.",2005,2000s,40.7646896,-73.9643068
570,Trust the Man (2005),"Malatesta Trattoria,‎ 649 Washington Street and Christopher Street, Manhattan.",2005,2000s,40.7333734,-74.0043918
571,Trust the Man (2005),"Great Jones Street and Lafayette Street, Manhattan.",2005,2000s,40.7272842,-73.993628
572,Trust the Man (2005),"Marquee Nightclub, 289 10th Avenue and West 26th Street, Manhattan.",2005,2000s,40.7475439,-73.9979046
573,Trust the Man (2005),"Shop, 163 Mercer Street (btw Houston Street & Prince Street) Manhattan.",2005,2000s,40.724628,-73.9986114
574,Trust the Man (2005),"West 21st Street and 7th Avenue, Manhattan.",2005,2000s,40.7428131,-73.9965997
575,True Story (2015),"Subway, 8th Avenue and West 41st Street, Manhattan.",2015,2010s,40.7579416,-73.9932244
576,True Story (2015),"New York Times, 620 8th Avenue and West 41st Street, Manhattan.",2015,2010s,40.756567,-73.990276
577,True Story (2015),"Rizzoli Bookstore, 712 5th Avenue and East 56th Street, Manhattan.",2015,2010s,40.7596085,-73.9680746
578,True Believer (1989),"Criminal Courts Building, 100 Centre Street, Manhattan.",1989,1980s,40.7159516,-74.0008772
579,True Believer (1989),"Subway, 7th Avenue South and Christopher Street, Manhattan.",1989,1980s,40.7333734,-74.0043918
580,True Believer (1989),"Peninsula Hotel, 700 5th Avenue and West 55th Street, Manhattan.",1989,1980s,40.766016,-73.9852394
581,True Believer (1989),"Subway,  7th Avenue and Christopher Street, Manhattan.",1989,1980s,40.7333734,-74.0043918
582,True Believer (1989),"Pell Street and Doyers Street, Chinatown, Manhattan.",1989,1980s,40.7148064,-73.9980331
583,True Believer (1989),"Eddie Dodd's Office, 110 7th Avenue and Christopher Street, Manhattan.",1989,1980s,40.7333734,-74.0043918
584,True Believer (1989),"New York County Supreme Court, 60 Centre Street, Financial, Manhattan.",1989,1980s,40.7830603,-73.9712488
585,True Believer (1989),"Roger's Apartment, 326 Bleecker Street and Christopher Street, Manhattan.",1989,1980s,40.7333734,-74.0043918
586,The Trouble with Bliss (2011),East 7th Street (btw 1st and 2nd Avenues) Manhattan.,2011,2010s,40.7830603,-73.9712488
587,The Trouble with Bliss (2011),St Marks Place (btw 1st Avenue and Avenue A) Manhattan.,2011,2010s,40.7260554,-73.9835429
588,The Trouble with Bliss (2011),"St Marks Place and 1st Avenue, Manhattan.",2011,2010s,40.7275967,-73.9852947
589,The Trouble with Bliss (2011),"Tompkins Square Park, East 7th Street and Avenue A, Manhattan.",2011,2010s,40.7260554,-73.9835429
590,The Trouble with Bliss (2011),"Andrea's Apartment, 346 East 13th Street (btw 1st & 2nd Avenues) Manhattan.",2011,2010s,40.7830603,-73.9712488
591,The Trouble with Bliss (2011),"TAJ Indian Cuisine, 310 East 6th Street (btw 1st & 2nd Avenues) Manhattan.",2011,2010s,40.7830603,-73.9712488
592,The Trouble with Bliss (2011),East 7th Street (btw 1st & 2nd Avenues) Manhattan.,2011,2010s,40.7830603,-73.9712488
593,The Trouble with Bliss (2011),"Hattie's Apartment, 346 East 13th Street (btw 1st & 2nd Avenues) Manhattan.",2011,2010s,40.7830603,-73.9712488
594,The Trouble with Bliss (2011),East 7th Street (btw 1st and 2nd Avenues) Manhattan.,2011,2010s,40.7830603,-73.9712488
595,Trick (1999),"West 4th Street and 7th Avenue, Manhattan.",1999,1990s,40.7337128,-74.0027627
596,Trick (1999),"Phone Booth, 7th Avenue South and West 4th Street, Manhattan.",1999,1990s,40.7336421,-74.0026047
597,Trick (1999),"7th Avenue and Christopher Street, Manhattan.",1999,1990s,40.7336089,-74.0028203
598,Trick (1999),"Subway, 7th Avenue and Christopher Street, Manhattan.",1999,1990s,40.7333734,-74.0043918
599,Trick (1999),"7th Avenue and Christopher Street, Manhattan.",1999,1990s,40.7336089,-74.0028203
600,Transformers: Revenge of the Fallen (2009),"Brooklyn Bridge, Lower East Side, Manhattan.",2009,2000s,40.7047531,-73.9953261
601,Transatlantic Coffee (2012),"Battery Park, Manhattan.",2012,2010s,40.7032775,-74.0170279
602,Transatlantic Coffee (2012),"Metropolitan Museum of Art, 1000 5th Avenue and East 82nd Street, Manhattan.",2012,2010s,40.7752992,-73.9536403
603,Trainwreck (2015),"Staten Island Ferry, New York Harbour.",2015,2010s,40.644189,-74.0725305
604,Trainwreck (2015),"Amy's Apartment, 319 Grand Street (Btw Orchard and Allen Streets) Manhattan.",2015,2010s,39.2040841,-96.5624648
605,Trainwreck (2015),"Amy's Workplace, 601 West 26th Street and 12th Avenue, Manhattan.",2015,2010s,40.7607442,-74.002077
606,Trainwreck (2015),"Barbuto Restaurant, 775 Washington Street and West 12th Street, Manhattan.",2015,2010s,40.7372245,-74.0006804
607,Trainwreck (2015),"The Mall, Central Park, Manhattan.",2015,2010s,40.7723522,-73.9715901
608,Trainwreck (2015),"Conservatory Water Central Park, (from 72nd to 75th Street) Manhattan.",2015,2010s,40.7707563,-73.9569408
609,Trainwreck (2015),"Veselka Cafe, 144 2nd Avenue and East 9th Street, Manhattan.",2015,2010s,40.7282732,-73.9851029
610,Trainwreck (2015),"Madison Square Garden, 8th Avenue and West 33rd Street, Manhattan.",2015,2010s,40.7515107,-73.9939525
611,Trading Places (1983),Greenwich Street (btw Liberty Street and Fulton Street) Manhattan.,1983,1980s,40.7102288,-74.0077407
612,Trading Places (1983),"World Trade Center, Financial, Manhattan.",1983,1980s,40.7134088,-74.011926
613,Trading Places (1983),"Brooklyn Bridge Park Pier 2, Brooklyn.",1983,1980s,40.6995733,-73.9987964
614,Tracers (2015),Delancey Street (btw Eldridge Street and Forsyth Street) Manhattan.,2015,2010s,40.7188482,-73.9925927
615,Tracers (2015),Eldridge Street (btw Broome Street and Delancey Street) Manhattan.,2015,2010s,40.7176254,-73.9858255
616,Town and Country (2001),"Porter's Apartment, 1067 5th Avenue (btw East 87th and 88th Street) Manhattan.",2001,2000s,40.7791877,-73.9507958
617,Town and Country (2001),"BALTO Sled Dog Statue, Central Park (West 67th Street) Manhattan.",2001,2000s,40.7742367,-73.9811285
618,Town and Country (2001),"Sheep Meadow, Central Park (btw 66th and 69th Street) Manhattan.",2001,2000s,40.767812,-73.962014
619,Town and Country (2001),"Conservatory Water Central Park, (from 72nd to 75th Street) Manhattan.",2001,2000s,40.7707563,-73.9569408
620,Town and Country (2001),"Queensboro Bridge, East 59th Street (btw Manhattan and Queens) New York.",2001,2000s,40.7282239,-73.7948516
621,Tower Heist (2011),"Josh's Apartment, 19 29th Street (btw Broadway and 31st Avenue) Queens.",2011,2010s,40.7580081,-73.8976923
622,Tower Heist (2011),29th Street (btw Broadway and 31st Avenue) Queens.,2011,2010s,40.7580081,-73.8976923
623,Tower Heist (2011),"Subway, (Near Columbus Circle) Broadway and West 60th Street, Manhattan.",2011,2010s,40.7710072,-73.9869855
624,Tower Heist (2011),"Trump International, 1 Central Park West and Columbus Circle, Manhattan.",2011,2010s,40.7680441,-73.9823722
625,Tower Heist (2011),"Columbus Circle and Central Park West, Manhattan.",2011,2010s,40.7682791,-73.9814387
626,Tower Heist (2011),"Neir’s Tavern, 8748 Woodhaven and 88th Avenue, New York.",2011,2010s,40.7070288,-73.8013515
627,Tower Heist (2011),"Toys R Us Store, 1514 Broadway and West 44th Street, Manhattan.",2011,2010s,40.7585406,-73.9888398
628,Tower Heist (2011),"New York County Supreme Court, 60 Centre Street, Financial, Manhattan.",2011,2010s,40.7830603,-73.9712488
629,Tootsie (1982),"Michael's Apartment, 15-17 West 18th Street and 5th Avenue, Manhattan.",1982,1980s,40.774734,-73.9653844
630,Tootsie (1982),"National Video Center, 460 West 42nd Street, Manhattan.",1982,1980s,40.7590307,-73.9945665
631,Tootsie (1982),"5th Avenue and East 59th Street, Manhattan.",1982,1980s,40.7642832,-73.9730166
632,Tootsie (1982),West 42nd Street (btw 9th and 10th Avenue) Manhattan.,1982,1980s,40.7545942,-73.999152
633,Titanic (1997),"Statue of Liberty, Liberty Island, New York Harbor.",1997,1990s,,
634,Tiny Furniture (2010),"619 East 5th Street and Avenue B, Manhattan.",2010,2010s,39.1852063,-96.5633351
635,Tiny Furniture (2010),"Plymouth Street and Main Street, Brooklyn.",2010,2010s,40.7038945,-73.9906462
636,Tiny Furniture (2010),"Little Street and Evans Street, Brooklyn.",2010,2010s,40.7030494,-73.9802805
637,Tiny Furniture (2010),"Aura's Apartment, 16 Desbrosses Street and Greenwich Street, Manhattan.",2010,2010s,40.7227909,-74.0096582
638,Time Out of Mind (2014),"Tompkins Square Park, East 8th Street and Avenue B, Manhattan.",2014,2010s,40.7256804,-73.9807682
639,Time Out of Mind (2014),"East Houston Street and Attorney Street, Manhattan.",2014,2010s,40.7212886,-73.982977
640,Time Out of Mind (2014),"Cosmo's Launderama, 142 1st Avenue and East 9th Street, Manhattan.",2014,2010s,40.7282732,-73.9851029
641,Time Out of Mind (2014),"Grand Central Terminal, 89 East 42nd Street and Park Avenue, Manhattan.",2014,2010s,40.7779534,-73.9589565
642,Time Out of Mind (2014),"Bar, 317 East Houston Street and Attorney Street, Manhattan.",2014,2010s,40.718835,-73.984243
643,The Time Machine (2002),"New York Public Library, 5th Avenue (btw 40th and 42nd Street) Manhattan.",2002,2000s,40.7127837,-74.0059413
644,Three the Hard Way (1974),West 70th Street (btw Freedom Place and West End Avenue) Manhattan.,1974,1970s,40.7869408,-73.9792876
645,Three the Hard Way (1974),"315 West 70th Street and West End Avenue, Manhattan.",1974,1970s,40.7784789,-73.985454
646,Three the Hard Way (1974),"Brooklyn Bridge, Lower East Side, Manhattan.",1974,1970s,40.7047531,-73.9953261
647,Three Rooms in Manhattan (1965),West 47th Street (btw 8th and 9th Avenue) Manhattan.,1965,1960s,40.7692123,-73.9847724
648,Three Rooms in Manhattan (1965),"Hotel Sherman, 302 West 47th Street and 8th Avenue, Manhattan.",1965,1960s,40.8165192,-73.9465432
649,Three Rooms in Manhattan (1965),"Cadman Plaza West and Everit Street, Brooklyn.",1965,1960s,40.7025386,-73.9943496
650,Three Rooms in Manhattan (1965),"Near Cherry Hill, Central Park, Manhattan.",1965,1960s,40.7748462,-73.9727014
651,Three Rooms in Manhattan (1965),"Office, 1285 6th Avenue (btw West 51st and 52nd Streets) Manhattan.",1965,1960s,39.2614232,-96.7192351
652,Three of Hearts (1993),"Washington Square Gardens, Greenwich Village, Manhattan.",1993,1990s,40.7314658,-73.9970956
653,Three of Hearts (1993),"Washington Square Park North and 5th Avenue, Manhattan.",1993,1990s,40.7314123,-73.9969848
654,Three Men and a Little Lady (1990),28 West 76th Street (btw Central Park West and Columbus Avenue) Manhattan.,1990,1990s,40.7854736,-73.9729361
655,Three Men and a Little Lady (1990),"Loeb Boathouse, Central Park (East Side btw 74th and 75th Street) Manhattan.",1990,1990s,40.7707563,-73.9569408
656,Three Days of the Condor (1975),"CIA Centre, 55 East 77th Street and Madison Avenue, Manhattan.",1975,1970s,40.7773054,-73.9614006
657,Three Days of the Condor (1975),East 83rd Street (btw Park Avenue & Lexington Avenue) Manhattan.,1975,1970s,40.773008,-73.96032
658,Three Days of the Condor (1975),"Candy Shop, 1226 Lexington Avenue and East 83rd Street, Manhattan.",1975,1970s,40.7759634,-73.9533614
659,Three Days of the Condor (1975),"East 77th Street and Madison Avenue, Manhattan.",1975,1970s,40.7750168,-73.9630991
660,Three Days of the Condor (1975),"Phone Booth, East 76th Street and Madison Avenue, Manhattan.",1975,1970s,40.7773054,-73.9614006
661,Three Days of the Condor (1975),"Guggenheim Museum, 1071 5th Avenue and East 89th Street, Manhattan.",1975,1970s,40.7798082,-73.9503372
662,Three Days of the Condor (1975),"CIA Offices, World Trade Center, Financial, Manhattan.",1975,1970s,40.7830603,-73.9712488
663,Three Days of the Condor (1975),"Riverside Drive and West 122nd Street, Manhattan.",1975,1970s,40.8126394,-73.9630143
664,Three Days of the Condor (1975),"Alley (behind the Ansonia) West 73rd Street and Broadway, Manhattan.",1975,1970s,40.759011,-73.9844722
665,Three Days of the Condor (1975),Broadway (btw West 74th and 75th Streets) Manhattan.,1975,1970s,40.7707563,-73.9569408
666,Three Days of the Condor (1975),"Shop, 2150 Broadway and West 76th Street, Manhattan.",1975,1970s,40.7812025,-73.9797543
667,Three Days of the Condor (1975),"Brooklyn Bridge, Lower East Side, Manhattan.",1975,1970s,40.7047531,-73.9953261
668,Three Days of the Condor (1975),"Kathy Hale's Apartment, 9 Cranberry Street and Columbia Heights, Brooklyn.",1975,1970s,40.6996627,-73.9956868
669,Three Days of the Condor (1975),"Holiday Inn, 440 West 57th Street and 9th Avenue, Manhattan.",1975,1970s,40.7692123,-73.9847724
670,Three Days of the Condor (1975),"East River Lane, Wards Island, New York.",1975,1970s,,
671,Three Days of the Condor (1975),West 43rd Street (btw 7th and 8th Avenues) Manhattan.,1975,1970s,40.7830603,-73.9712488
672,A Thousand Clowns (1965),"Lincoln Center, Columbus Avenue (btw West 63rd & 64th Street) Manhattan.",1965,1960s,40.7646896,-73.9643068
673,A Thousand Clowns (1965),5th Avenue (btw East 40th and 42nd Street) Manhattan.,1965,1960s,40.758034,-73.9917031
674,A Thousand Clowns (1965),"Sheep Meadow, Central Park (btw 66th and 69th Street) Manhattan.",1965,1960s,40.767812,-73.962014
675,A Thousand Clowns (1965),"Staten Island Ferry, New York Harbour.",1965,1960s,40.644189,-74.0725305
676,A Thousand Clowns (1965),"Statue of Liberty, Liberty Island, New York Harbor.",1965,1960s,,
677,A Thousand Clowns (1965),"South Street Seaport, East River, Manhattan.",1965,1960s,40.7830603,-73.9712488
678,A Thousand Clowns (1965),Park Avenue (btw East 47th and 48th Street) Manhattan.,1965,1960s,40.761038,-73.987015
679,A Thousand Clowns (1965),"630, 5th Avenue (btw East 50th and 51st Street) Manhattan.",1965,1960s,40.762915,-73.985647
680,A Thousand Clowns (1965),"Bandshell, Central Park (from 66th to 72nd Street) Manhattan.",1965,1960s,40.7697512,-73.9605925
681,A Thousand Clowns (1965),"Wall Street, Financial, Manhattan.",1965,1960s,40.7060006,-74.008801
682,This Is Where I Leave You (2014),Mercer Street (btw Howard Street and Grand Street) Manhattan.,2014,2010s,40.717664,-73.9922279
683,30 Beats (2012),"Zachary's Smile, 9 Greenwich Avenue and Christopher Street, Manhattan.",2012,2010s,40.7333734,-74.0043918
684,30 Beats (2012),"Robert G Salon, 23 Commerce Street and Bedford Street, Manhattan.",2012,2010s,40.7307284,-74.0044668
685,30 Beats (2012),"Greenwich Street and Perry Street, Manhattan.",2012,2010s,40.7349946,-74.0069935
686,30 Beats (2012),"404 West 20th Street and 9th Avenue, Manhattan.",2012,2010s,40.7446392,-74.0027306
687,30 Beats (2012),"Subway, East 77th Street and Lexington Avenue, Manhattan.",2012,2010s,40.773008,-73.96032
688,30 Beats (2012),"Lexington Avenue and East 77th Street, Manhattan.",2012,2010s,40.7736478,-73.959857
689,30 Beats (2012),"East 70th Street and Lexington Avenue, Manhattan.",2012,2010s,40.769113,-73.963161
690,30 Beats (2012),"164 East 64th Street and Lexington Avenue, Manhattan.",2012,2010s,40.765357,-73.9659
691,30 Beats (2012),"Belcourt, 84 East 4th Street and 2nd Avenue, Manhattan.",2012,2010s,40.7643734,-73.9616091
692,13 Going on 30 (2004),"Poise Magazine, 444 Madison Avenue and East 49th Street, Manhattan.",2004,2000s,40.755217,-73.971253
693,13 Going on 30 (2004),"Matt's Apartment, 305 West 4th Street and Bank Street, Manhattan.",2004,2000s,40.7365564,-74.0058348
694,13 Going on 30 (2004),"Jenna's Apartment, 51 5th Avenue and West 12th Street, Manhattan.",2004,2000s,40.7372245,-74.0006804
695,13 Going on 30 (2004),"Restaurant, 71 Greene Street and Spring Street, Manhattan.",2004,2000s,41.4304236,-87.9883293
696,13 Going on 30 (2004),"Times Square, Manhattan.",2004,2000s,40.759011,-73.9844722
697,13 Going on 30 (2004),"Conservatory Water, Central Park (72nd and 75th Street) Manhattan.",2004,2000s,40.7707563,-73.9569408
698,13 Going on 30 (2004),"Sheep Meadow, Central Park (btw 66th and 69th Street) Manhattan.",2004,2000s,40.767812,-73.962014
699,13 Going on 30 (2004),"New York Public Library, 455 West 5th Avenue, Manhattan.",2004,2000s,40.7518863,-73.9817055
700,13 Going on 30 (2004),"26 New Dock St, Brooklyn.",2004,2000s,40.7037973,-73.9933534
701,13 Going on 30 (2004),"MacDougal Street and West 3rd Street, Manhattan.",2004,2000s,40.7304449,-74.0001351
702,13 (2010),"Grand Central Terminal, 89 East 42nd Street and Park Avenue, Manhattan.",2010,2010s,40.7779534,-73.9589565
703,The Thin Man Goes Home (1945),"Grand Central Terminal, 89 East 42nd Street and Park Avenue, Manhattan.",1945,1940s,40.7779534,-73.9589565
704,The Thief (1952),"Broadway and West 34th Street, Manhattan.",1952,1950s,40.7498844,-73.9879826
705,The Thief (1952),"Macy's Store, 151 West 34th Street (btw 6th and 7th Avenues) Manhattan.",1952,1950s,40.7830603,-73.9712488
706,The Thief (1952),"Times Square, Manhattan.",1952,1950s,40.759011,-73.9844722
707,The Thief (1952),"Pennsylvania Station, 7th Avenue and West 31st Street, Manhattan.",1952,1950s,40.7495244,-73.993016
708,The Thief (1952),"Central Park West and 72nd Street, Manhattan.",1952,1950s,40.7762315,-73.9759697
709,The Thief (1952),"Park Avenue and East 34th Street, Manhattan.",1952,1950s,40.7470385,-73.981255
710,The Thief (1952),"Empire State Building, 350 5th Avenue and West 34th Street, Manhattan.",1952,1950s,40.7484456,-73.9845633
711,The Thief (1952),"Floor 102, Empire State Building, 350 5th Avenue and West 34th Street, Manhattan.",1952,1950s,40.7484456,-73.9845633
712,The Thief (1952),"Wall Street and Broad Street, Manhattan.",1952,1950s,40.7071033,-74.010648
713,The Thief (1952),"Centre Street and Worth Street, Manhattan.",1952,1950s,40.7151705,-74.0021222
714,Then She Found Me (2007),East 78th Street (btw 2nd and 3rd Avenue) Manhattan.,2007,2000s,40.7684404,-73.9615733
715,Then She Found Me (2007),"Restaurant, 216 East 78th Street and 3rd Avenue, Manhattan.",2007,2000s,40.7684404,-73.9615733
716,They Might Be Giants (1971),"Washington Square Park North and 5th Avenue, Manhattan.",1971,1970s,40.7314123,-73.9969848
717,They Might Be Giants (1971),"Times Square, Manhattan.",1971,1970s,40.759011,-73.9844722
718,They Came Together (2014),"Knickerbocker Bar, 33 University Place and East 9th Street, Manhattan.",2014,2010s,40.7282732,-73.9851029
719,They Came Together (2014),"Subway, Broadway and West 79th Street, Manhattan.",2014,2010s,40.7838194,-73.9799099
720,They Came Together (2014),"Strand Book Store, 828 Broadway and East 12th Street, Manhattan.",2014,2010s,40.7300043,-73.9835255
721,They Came Together (2014),"Tazza, 72 Clark Street and Henry Street, Brooklyn.",2014,2010s,40.684816,-73.999081
722,They Came Together (2014),"7th Avenue and Garfield Place, Brooklyn.",2014,2010s,40.6723228,-73.9770623
723,They Came Together (2014),"Joel's Workplace, 815 2nd Avenue and East 44th Street, Manhattan.",2014,2010s,40.7526985,-73.9749987
724,They Came Together (2014),2nd Avenue (btw East 43rd and 44th Street) Manhattan.,2014,2010s,40.7585406,-73.9888398
725,They Came Together (2014),"201 West 71st Street and Broadway, Manhattan.",2014,2010s,40.7780337,-73.9823404
726,They Came Together (2014),"Park Way, Brooklyn Heights Promenade, Brooklyn.",2014,2010s,40.6965319,-73.9977917
727,They All Laughed (1981),"Manhattan Bridge, East River, Lower Manhattan.",1981,1980s,40.7205751,-73.9733626
728,They All Laughed (1981),"Downtown Manhattan Heliport, Pier 17, Manhattan.",1981,1980s,40.7830603,-73.9712488
729,They All Laughed (1981),"Public School 40, 320 East 20th Street (btw 1st & 2nd Avenues) Manhattan.",1981,1980s,40.7830603,-73.9712488
730,They All Laughed (1981),"2nd Avenue and East 20th Street, Manhattan.",1981,1980s,40.7359972,-73.9822652
731,They All Laughed (1981),"Music Box Theatre, 239 West 45th Street (btw 7th and 8th Avenue) Manhattan.",1981,1980s,40.8165192,-73.9465432
732,They All Laughed (1981),"Shubert Alley and West 45th Street, Manhattan.",1981,1980s,40.758453,-73.986713
733,They All Laughed (1981),"Algonquin Hotel, 59 West 44th Street and 6th Avenue, Manhattan.",1981,1980s,40.7428095,-73.992866
734,They All Laughed (1981),"Shoe Shop, 677 5th Avenue and East 53rd Street, Manhattan.",1981,1980s,40.757781,-73.9695726
735,They All Laughed (1981),"The Plaza Hotel, 750 5th Avenue and Central Park South, Manhattan.",1981,1980s,40.7828647,-73.9653551
736,They All Laughed (1981),5th Avenue (btw West 57th and 56th Streets) Manhattan.,1981,1980s,39.123218,-96.6713534
737,They All Laughed (1981),"Dolores's Brownstone, 40 West 12th Street (btw 5th & 6th Avenues) Manhattan.",1981,1980s,40.7830603,-73.9712488
738,They All Laughed (1981),West 12th Street (btw 5th & 6th Avenues) Manhattan.,1981,1980s,40.7830603,-73.9712488
739,They All Laughed (1981),"New York County Supreme Court, 60 Centre Street, Manhattan.",1981,1980s,40.7143245,-74.0014732
740,They All Laughed (1981),"Office, 120 South Street (btw Wall Street and Pine Street) Manhattan.",1981,1980s,45.8573817,-111.3230019
741,That Touch of Mink (1962),"New York Athletic Club, 180 Central Park South and 7th Avenue, Manhattan.",1962,1960s,40.73658,-74.0011456
742,That's What She Said (2012),"Subway, East 8th Street and Broadway, Manhattan.",2012,2010s,40.759011,-73.9844722
743,That's What She Said (2012),"Astor Place and Lafayette Street, Manhattan.",2012,2010s,40.72983,-73.9914232
744,That's What She Said (2012),"Milk & Roses, 1110 Manhattan Avenue and Clay Street, Brooklyn.",2012,2010s,41.7308937,-92.4442442
745,That's What She Said (2012),"9th Avenue and West 19th Street, Manhattan.",2012,2010s,40.7440493,-74.003174
746,That's What She Said (2012),"Pastel Spa & Nails, 193 2nd Avenue & East 12th Street, Manhattan.",2012,2010s,40.7300043,-73.9835255
747,That's What She Said (2012),"Amy's Hair Salon, 20 Pell Street and Doyers Street, Manhattan.",2012,2010s,40.7143527,-73.9979759
748,That's What She Said (2012),"Pell Street and Mott Street, Chinatown, Manhattan.",2012,2010s,40.714979,-73.9988685
749,That's What She Said (2012),"Eleven B Cafe, Avenue B and East 11th Street, Manhattan.",2012,2010s,40.7293534,-73.9840123
750,Three Men and a Baby (1987),"Cityspire Center, 150 West 56th Street (btw 7th & 6th Avenues) Manhattan.",1987,1980s,40.7830603,-73.9712488
751,Three Men and a Baby (1987),"Apartment (The Prasada) 50 Central Park West and West 65th street, Manhattan.",1987,1980s,40.7741641,-73.9848426
752,Three Men and a Baby (1987),"News Stand, Broadway (btw West 71st and 72nd Streets) Manhattan.",1987,1980s,40.7697512,-73.9605925
753,Three Men and a Baby (1987),"Phone Booth, Columbus Avenue and West 81st Street, Manhattan.",1987,1980s,40.7844744,-73.9773671
754,Three Men and a Baby (1987),"Broadway and West 64th Street, Manhattan.",1987,1980s,40.7721863,-73.9820878
755,Three Men and a Baby (1987),"(Near) Belvedere Castle, Central Park, Manhattan.",1987,1980s,40.7794302,-73.9690677
756,Three Men and a Baby (1987),"Alice in Wonderland, Central Park (East 74th Street) Manhattan.",1987,1980s,40.7701235,-73.9574128
757,Three Men and a Baby (1987),"Conservatory Water Central Park, (from 72nd to 75th Street) Manhattan.",1987,1980s,40.7707563,-73.9569408
758,Three Men and a Baby (1987),West 56th Street (btw 7th & 6th Avenues) Manhattan.,1987,1980s,40.7830603,-73.9712488
759,That Awkward Moment (2014),Gramercy Park (btw East 20th & 21st Streets) Manhattan.,2014,2010s,40.744009,-73.999422
760,That Awkward Moment (2014),"Irving Place and East 18th Street, Manhattan.",2014,2010s,40.7364484,-73.9869654
761,That Awkward Moment (2014),"Mott Street and Prince Street, Manhattan.",2014,2010s,40.7230063,-73.9949261
762,That Awkward Moment (2014), Crosby Street (btw Prince Street & Spring Street) Manhattan.,2014,2010s,41.4304236,-87.9883293
763,That Awkward Moment (2014),"Apartment, 240 Elizabeth Street and Prince Street, Manhattan.",2014,2010s,40.7227303,-73.9941604
764,That Awkward Moment (2014),"Cafe Select, 212 Lafayette Street and Kenmare Street, Manhattan.",2014,2010s,40.7209004,-73.995751
765,That Awkward Moment (2014),"East 18th Street and Irving Place, Manhattan.",2014,2010s,40.7364484,-73.9869654
766,That Awkward Moment (2014),"Le Baron NYC, 32 Mulberry Street and Mosco Street, Manhattan.",2014,2010s,40.7144558,-73.9992658
767,That Awkward Moment (2014),East 18th Street (btw Irving Place and Park Avenue) Manhattan.,2014,2010s,40.7779534,-73.9589565
768,That Awkward Moment (2014),"Gramercy Park West and East 20th Street, Manhattan.",2014,2010s,40.7379273,-73.9868586
769,That Awkward Moment (2014),"4 Gramercy Park West and East 20th Street, Manhattan.",2014,2010s,40.7382041,-73.9875484
770,That Awkward Moment (2014),262 Mott Street (btw East Houston Street & Prince Street) Manhattan.,2014,2010s,40.724628,-73.9986114
771,That Awkward Moment (2014),"Crosby Street and Prince Street, Manhattan.",2014,2010s,40.7238833,-73.9969553
772,That Awkward Moment (2014),"Irving Farm, 88 Orchard Street and Broome Street, Manhattan.",2014,2010s,40.7193626,-73.9942698
773,Thanks for Sharing (2012),"6th Avenue and West 26th Street, Manhattan.",2012,2010s,40.7447955,-73.9914219
774,Thanks for Sharing (2012),"Kingswood, 121 West 10th Street and Greenwich Avenue, Manhattan.",2012,2010s,39.9941074,-83.0211696
775,Thanks for Sharing (2012),"St. George's Church, 209 East 16th Street & Rutherford Place, Manhattan.",2012,2010s,40.7339849,-73.9847608
776,Thanks for Sharing (2012),"Bethesda Terrace, (Mid-Park at 72nd Street) Central Park, Manhattan.",2012,2010s,40.7787287,-73.9819095
777,Thanks for Sharing (2012),"The Mall, Central Park, Manhattan.",2012,2010s,40.7723522,-73.9715901
778,Thanks for Sharing (2012),"East 42nd Street and Madison Avenue, Manhattan.",2012,2010s,40.7528072,-73.9792702
779,Thanks for Sharing (2012),"High Line Park, 519 West 23rd Street, Meatpacking District, Manhattan.",2012,2010s,40.7482519,-74.0047484
780,Thanks for Sharing (2012),"West 42nd Street and 5th Avenue, Manhattan.",2012,2010s,40.7534877,-73.9808944
781,Thanks for Sharing (2012),"Woodley & Bunny Salon, 196 North 10th Street and Driggs Avenue, Brooklyn.",2012,2010s,40.71814,-73.955251
782,Thanks for Sharing (2012),"Amsterdam Avenue and West 105th Street, Manhattan.",2012,2010s,40.7997833,-73.9661952
783,Thanks for Sharing (2012),"Lido Bar, 2168 Frederick Douglass Blvd & West 117th Street, Harlem.",2012,2010s,40.8038725,-73.9519366
784,Thanks for Sharing (2012),Broadway (btw East 21st and 22nd Street) Manhattan.,2012,2010s,40.7446311,-73.9989763
785,Thanks for Sharing (2012),"Shop, 385 8th Avenue and West 29th Street, Manhattan.",2012,2010s,40.7496621,-73.9971944
786,Thanks for Sharing (2012),"Greenwich Avenue and Charles Street, Manhattan.",2012,2010s,40.7353106,-74.0003832
787,Thanks for Sharing (2012),"Greenwich Avenue and West 10th Street, Manhattan.",2012,2010s,40.7346785,-73.9999956
788,Thanks for Sharing (2012),West 10th Street (btw Greenwich & 6th Avenues) Manhattan.,2012,2010s,40.7830603,-73.9712488
789,The Thomas Crown Affair (1999),"Metropolitan Museum of Art, 1000 5th Avenue and East 82nd Street, Manhattan.",1999,1990s,40.7752992,-73.9536403
790,The Thomas Crown Affair (1999),"Crown Townhouse, 18 East 68th Street and 5th Avenue, Manhattan.",1999,1990s,40.774734,-73.9653844
791,The Thomas Crown Affair (1999),"Crown Office, Front Street and Old Ship, Financial, Manhattan.",1999,1990s,40.7830603,-73.9712488
792,The Thomas Crown Affair (1999),"Sherry Netherland Hotel, 781 5th Avenue and East 59th Street, Manhattan.",1999,1990s,40.7615589,-73.9666034
793,The Thomas Crown Affair (1999),"New York Public Library, 5th Avenue (btw 40th and 42nd Street) Manhattan.",1999,1990s,40.7127837,-74.0059413
794,The Thomas Crown Affair (1999),"Downtown Manhattan Heliport, Pier 17, Manhattan.",1999,1990s,40.7830603,-73.9712488
795,The Terminal (2004),"(JFK Airport) Mirabel International Airport, Montréal, Québec, Canada.",2004,2000s,45.5016889,-73.567256
796,The 10th Victim (1965),"Federal Hall, Wall Street, Manhattan.",1965,1960s,40.7073993,-74.0102088
797,The 10th Victim (1965),"Wall Street and Broad Street, Manhattan.",1965,1960s,40.7071033,-74.010648
798,10 Rules for Sleeping Around (2013),"Restaurant, 151 West 34th Street and 8th Avenue, Manhattan.",2013,2010s,40.8165192,-73.9465432
799,10 Rules for Sleeping Around (2013),"Back Fence, 155 Bleecker Street and Thompson Street, Manhattan.",2013,2010s,40.7261224,-74.00161
800,10 Rules for Sleeping Around (2013),"Spring Street and Broadway, Manhattan.",2013,2010s,40.7230414,-73.9987861
801,Teenage Mutant Ninja Turtles (2014),"Navy Yard Basin, Brooklyn, New York.",2014,2010s,40.703436,-73.9743053
802,Teenage Mutant Ninja Turtles (2014),5th Avenue (btw East 24th & 25th Streets) Manhattan.,2014,2010s,40.746581,-73.997552
803,Teenage Mutant Ninja Turtles (2014),"Battery Park, Manhattan.",2014,2010s,40.7032775,-74.0170279
804,Teenage Mutant Ninja Turtles (2014),"Subway, Broad Street and Wall Street, Manhattan.",2014,2010s,40.7060006,-74.008801
805,Teenage Mutant Ninja Turtles (2014),"Times Square, Manhattan.",2014,2010s,40.759011,-73.9844722
806,Teenage Mutant Ninja Turtles (1990),"Columbus Circle and Central Park West, Manhattan.",1990,1990s,40.7682791,-73.9814387
807,Teenage Mutant Ninja Turtles (1990),"Central Park West and Columbus Circle, Manhattan.",1990,1990s,40.7682791,-73.9814387
808,Teenage Mutant Ninja Turtles (1990),"New York County Supreme Court, 60 Centre Street, Financial, Manhattan.",1990,1990s,40.7830603,-73.9712488
809,Teenage Mutant Ninja Turtles (1990),"Bleecker Street and Mulberry Street, Manhattan.",1990,1990s,40.725841,-73.9944622
810,Taxi Driver (1976),West 57th Street (btw 11th and 12th Avenues) Manhattan.,1976,1970s,40.7830603,-73.9712488
811,Taxi Driver (1976),"Times Square, Manhattan.",1976,1970s,40.759011,-73.9844722
812,Taxi Driver (1976),"8th Avenue and West 47th Street, Manhattan.",1976,1970s,40.760411,-73.9874575
813,Taxi Driver (1976),"737 8th Avenue and West 47th Street, Manhattan.",1976,1970s,40.760411,-73.9874575
814,Taxi Driver (1976),"Charles Palantine HQ, Broadway and West 63rd Street, Manhattan.",1976,1970s,40.7736326,-73.9874643
815,Taxi Driver (1976),"Hotel Olcott, 27 West 72nd Street and Central Park West, Manhattan.",1976,1970s,40.7828647,-73.9653551
816,Taxi Driver (1976),"Coffee Shop, 8th Avenue and West 58th Street, Manhattan.",1976,1970s,40.7678687,-73.9834487
817,Taxi Driver (1976),"3rd Avenue and East 13th Street, Manhattan.",1976,1970s,40.7325835,-73.9876887
818,Taxi Driver (1976),"Broadway and West 45th Street, Manhattan.",1976,1970s,40.7579984,-73.9856257
819,Taxi Driver (1976),"Theatre, 213 West 42nd Street and 7th Avenue, Manhattan.",1976,1970s,40.756034,-73.9869451
820,Taxi Driver (1976),"5th Avenue and West 19th Street, Manhattan.",1976,1970s,40.7390814,-73.9913896
821,Taxi Driver (1976),"West 38th Street and 7th Avenue, Manhattan.",1976,1970s,40.7535205,-73.9887892
822,Taxi Driver (1976),"3rd Avenue and East 13th Street, Manhattan.",1976,1970s,40.7325835,-73.9876887
823,Taxi Driver (1976),"East 13th Street and 3rd Avenue, Manhattan.",1976,1970s,40.7325835,-73.9876887
824,Taxi Driver (1976),204 East 13th Street (btw 2nd and 3rd Avenue) Manhattan.,1976,1970s,40.7684404,-73.9615733
825,Taxi Driver (1976),226 East 13th Street (btw 2nd and 3rd Avenue) Manhattan.,1976,1970s,40.7684404,-73.9615733
826,Taxi Driver (1976),"Central Park West and Columbus Circle, Manhattan.",1976,1970s,40.7682791,-73.9814387
